City_ID,City,Lat,Lng,Max Temp,Humidity,Cloudiness,Wind Speed,Country,Date
0,grytviken,-54.2811,-36.5092,-6.71,84,25,5.34,GS,1688858853
1,waitangi,-43.9535,-176.5597,12.12,80,50,1.79,NZ,1688858854
2,avarua,-21.2078,-159.775,27.03,78,75,7.72,CK,1688858854
3,kristiansund,63.1115,7.732,15.03,88,75,1.54,NO,1688858855
4,bikenibeu village,1.3673,173.1241,27.98,89,100,3.09,KI,1688858856
5,yellowknife,62.456,-114.3525,26.29,36,40,5.66,CA,1688858856
6,albany,42.6001,-73.9662,27.24,80,94,0.87,US,1688858839
7,port-aux-francais,-49.35,70.2167,1.02,78,98,5.49,TF,1688858857
8,adamstown,-25.066,-130.1015,22.05,77,76,6.42,PN,1688858858
9,hawaiian paradise park,19.5933,-154.9731,24.46,94,100,3.6,US,1688858858
10,akureyri,65.6835,-18.0878,11.96,71,20,1.03,IS,1688858859
11,stepnogorsk,52.3544,71.8869,16.75,64,22,3.19,KZ,1688858859
12,callao,-12.0667,-77.15,23.18,73,20,7.72,PE,1688858809
13,ushuaia,-54.8,-68.3,3.81,70,40,8.75,AR,1688858627
14,college,64.8569,-147.8028,18.66,55,75,6.17,US,1688858861
15,yazoo city,32.8551,-90.4056,33.39,53,26,2.6,US,1688858824
16,longyearbyen,78.2186,15.6401,7.91,81,75,0.51,SJ,1688858862
17,tucurui,-3.7661,-49.6725,26.14,72,87,0.56,BR,1688858863
18,crane,31.3974,-102.3501,36.11,27,6,8.83,US,1688858864
19,flowood,32.3096,-90.139,34.12,58,20,4.63,US,1688858692
20,hammerfest,70.6634,23.6821,8.25,76,48,2.06,NO,1688858650
21,badger,64.8,-147.5333,18.62,51,75,6.17,US,1688858865
22,bredasdorp,-34.5322,20.0403,7.41,87,62,4.7,ZA,1688858867
23,kodiak,57.79,-152.4072,13.73,62,75,5.66,US,1688858867
24,olonkinbyen,70.9221,-8.7187,5.84,98,100,9.11,SJ,1688858868
25,morden,49.1919,-98.1014,25.05,43,70,4.63,CA,1688858868
26,geraldton,-28.7667,114.6,8.23,93,0,3.09,AU,1688858869
27,puerto natales,-51.7236,-72.4875,-2.76,90,6,1.23,CL,1688858593
28,covington,39.0837,-84.5086,25.81,80,75,1.54,US,1688858870
29,nongpoh,25.9,91.8833,23.76,96,99,1.18,IN,1688858871
30,lavrio,37.7145,24.0565,28.24,67,0,2.1,GR,1688858871
31,puerto ayora,-0.7393,-90.3518,25.86,90,31,3.58,EC,1688858872
32,enewetak,11.3474,162.3373,28.25,81,97,6.58,MH,1688858872
33,fort bragg,35.139,-79.006,27.12,74,40,4.12,US,1688858873
34,mogadishu,2.0371,45.3438,25.16,82,31,8.49,SO,1688858873
35,sangmelima,2.9333,11.9833,19.27,100,99,0.84,CM,1688858874
36,jamestown,42.097,-79.2353,23.8,68,20,1.54,US,1688858701
37,franklin,39.9667,-83.0166,26.18,74,75,3.09,US,1688858378
38,georgetown,5.4112,100.3354,26.12,92,40,1.54,MY,1688858651
39,kralendijk,12.15,-68.2667,28.99,79,20,8.23,BQ,1688858876
40,san antonio oeste,-40.7319,-64.9477,10.83,62,79,2.44,AR,1688858103
41,pisco,-13.7,-76.2167,21.03,73,0,6.69,PE,1688858877
42,arno,60.1167,18.6333,15.44,82,54,2.05,SE,1688858877
43,blackmans bay,-43.0167,147.3167,9.07,75,38,6.41,AU,1688858875
44,tual,-5.6667,132.75,26.43,83,77,11.02,ID,1688858879
45,usinsk,65.9939,57.5281,8.77,93,100,3.32,RU,1688858879
46,ola,59.5833,151.2833,11.62,91,87,2.04,RU,1688858875
47,drezna,55.7458,38.8497,14.91,78,100,2.49,RU,1688858880
48,hilo,19.7297,-155.09,24.58,95,100,3.6,US,1688858807
49,walvis bay,-22.9575,14.5053,12.83,76,0,2.57,NA,1688858881
50,taghazout,30.5426,-9.7112,21.43,82,1,3.12,MA,1688858882
51,wailua homesteads,22.0669,-159.378,28.44,68,40,8.75,US,1688858882
52,fort st. john,56.2499,-120.8529,28.94,32,0,1.54,CA,1688858883
53,bethel,41.3712,-73.414,27.05,78,100,1.54,US,1688858884
54,aasiaat,68.7098,-52.8699,3.69,94,100,1.6,GL,1688858884
55,mezhdurechenskiy,59.6,65.9333,16.57,65,100,2.54,RU,1688858885
56,vilyuchinsk,52.9306,158.4028,19.15,78,79,1.05,RU,1688858885
57,port alfred,-33.5906,26.891,12.2,68,38,11.88,ZA,1688858886
58,ghadamis,30.1337,9.5007,33.66,14,0,4.17,LY,1688858886
59,guerrero negro,27.9769,-114.0611,21.3,62,4,8.33,MX,1688858856
60,port elizabeth,-33.918,25.5701,12.16,59,0,9.26,ZA,1688858786
61,coihueco,-36.6167,-71.8333,9.41,87,99,1.54,CL,1688858815
62,tiksi,71.6872,128.8694,3.22,62,92,4.25,RU,1688858878
63,ribeira grande,38.5167,-28.7,19.87,84,10,1.79,PT,1688858890
64,devils lake,48.1128,-98.8651,26.06,47,20,4.63,US,1688858891
65,rundu,-17.9333,19.7667,11.83,36,0,2.46,NA,1688858653
66,isafjordur,66.0755,-23.124,12.34,65,71,1.49,IS,1688858892
67,buctzotz,21.2,-88.7833,30.73,60,92,1.86,MX,1688858892
68,vaxjo,56.8777,14.8091,16.03,82,40,1.54,SE,1688858893
69,bethanie,-26.4833,17.15,5.61,77,0,2.66,NA,1688858893
70,port lincoln,-34.7333,135.8667,13.39,80,7,5.84,AU,1688858894
71,greymouth,-42.4667,171.2,11.69,93,100,1.45,NZ,1688858895
72,el bauga,18.262,33.9081,33.31,21,58,4.03,SD,1688858895
73,iqaluit,63.7506,-68.5145,7.85,87,20,3.6,CA,1688858635
74,nuku'alofa,-21.1333,-175.2,25.19,69,20,2.57,TO,1688858896
75,mohr,54.3528,9.7167,17.08,78,1,0.45,DE,1688858897
76,leticia,-4.2153,-69.9406,25.03,100,40,1.03,CO,1688858898
77,palmares do sul,-30.2578,-50.5097,15.61,90,100,2.08,BR,1688858817
78,vila nova de foz coa,41.0637,-7.2039,16.41,70,0,1.88,PT,1688858899
79,luderitz,-26.6481,15.1594,12.99,65,0,8.75,NA,1688858899
80,kununurra,-15.7667,128.7333,19.99,40,30,5.14,AU,1688858900
81,krylovskaya,46.3194,39.9711,19.4,94,89,2.72,RU,1688858900
82,tozeur,33.9197,8.1335,39.22,18,15,8.75,TN,1688858901
83,inhambane,-23.865,35.3833,18.63,82,0,5.23,MZ,1688858902
84,opuwo,-18.0607,13.84,14.88,35,0,3.1,NA,1688858902
85,dudinka,69.4058,86.1778,14.79,79,100,2.75,RU,1688858903
86,labytnangi,66.6572,66.4183,10.52,91,65,0.76,RU,1688858903
87,puerto lempira,15.2667,-83.7667,29.08,70,20,3.09,HN,1688858904
88,oodweyne,9.4092,45.064,23.18,50,51,9.41,SO,1688858721
89,barra,-11.0894,-43.1417,25.62,55,0,3.46,BR,1688858905
90,al kharj,24.155,47.3346,34.32,10,68,2.07,SA,1688858906
91,margaret river,-33.95,115.0667,14.54,74,100,6.46,AU,1688858906
92,peterhead,57.5058,-1.7981,16.22,92,95,5.18,GB,1688858907
93,weno,7.4515,151.8468,26.97,100,100,1.54,FM,1688858907
94,hinton,53.4001,-117.5857,28.43,27,39,1.51,CA,1688858908
95,zin'kiv,50.2081,34.3638,18.02,96,100,5.87,UA,1688858908
96,pertek,38.8663,39.3268,21.76,55,26,1.22,TR,1688858909
97,joshimath,30.5667,79.5667,21.41,90,99,0.34,IN,1688858910
98,lumphat,13.4878,106.9816,23.56,97,100,0.95,KH,1688858910
99,katsuura,35.1333,140.3,25.56,91,100,11.12,JP,1688858911
100,champerico,14.3,-91.9167,24.3,72,66,2.88,GT,1688858912
101,uturoa,-16.7333,-151.4333,26.87,79,41,8.45,PF,1688858913
102,forster,-32.1667,152.5167,16.27,55,0,6.62,AU,1688858913
103,narasapur,16.45,81.6667,27.85,80,100,2.06,IN,1688858914
104,sungai penuh,-2.0833,101.3833,17.19,89,90,1.42,ID,1688858915
105,ghat,24.9647,10.1728,29.92,13,0,5.07,LY,1688858915
106,taro,-8.3862,115.28,22.0,97,100,1.23,ID,1688858916
107,puerto la cruz,10.2167,-64.6167,26.41,86,66,3.97,VE,1688858692
108,sinop,41.7711,34.8709,17.34,88,86,3.15,TR,1688858917
109,carleton place,45.1334,-76.1494,25.15,72,94,1.34,CA,1688858917
110,cockburn town,21.4612,-71.1419,27.97,80,5,7.34,TC,1688858918
111,new norfolk,-42.7826,147.0587,9.72,73,16,4.82,AU,1688858654
112,ust-nera,64.5667,143.2,8.47,88,100,5.17,RU,1688858879
113,pionerskiy,54.9508,20.2275,15.42,83,5,3.99,RU,1688858919
114,sisimiut,66.9395,-53.6735,8.53,90,100,1.47,GL,1688858867
115,ilhabela,-23.7781,-45.3581,22.62,64,93,1.84,BR,1688858920
116,salinopolis,-0.6136,-47.3561,25.59,86,36,4.14,BR,1688858633
117,port hedland,-20.3167,118.5667,10.03,43,5,4.12,AU,1688858921
118,vadso,70.0744,29.7487,7.49,81,100,3.09,NO,1688858878
119,salalah,17.0151,54.0924,26.05,100,100,1.54,OM,1688858923
120,hithadhoo,-0.6,73.0833,27.1,69,87,1.19,MV,1688858884
121,lebu,-37.6167,-73.65,9.47,75,100,2.56,CL,1688858924
122,khark,29.2614,50.3306,31.14,73,0,1.76,IR,1688858924
123,susuman,62.7833,148.1667,12.62,87,100,1.21,RU,1688858920
124,utrik,11.2278,169.8474,28.13,79,100,8.3,MH,1688858926
125,tyukhtet,56.5389,89.3011,15.73,95,53,3.08,RU,1688858926
126,namibe,-15.1961,12.1522,17.18,90,5,0.48,AO,1688858927
127,kostomuksha,64.571,30.5767,6.52,89,76,0.26,RU,1688858927
128,nagqu,31.5,92.0,4.39,88,74,0.95,CN,1688858928
129,ilulissat,69.2167,-51.1,7.01,93,100,0.0,GL,1688858928
130,nemuro,43.3236,145.575,13.77,96,80,2.16,JP,1688858929
131,aykhal,66.0,111.5,19.66,52,78,7.23,RU,1688858930
132,apolinario saravia,-24.4328,-63.9954,16.72,79,90,1.53,AR,1688858930
133,rumoi,43.9344,141.6428,23.96,71,76,1.62,JP,1688858931
134,saipan,15.1355,145.701,29.8,100,40,8.23,MP,1688858931
135,yendi,9.4427,-0.0099,22.89,92,93,1.68,GH,1688858932
136,beihai,21.4833,109.1,28.91,82,80,3.39,CN,1688858932
137,edinburgh of the seven seas,-37.0676,-12.3116,14.96,80,93,11.08,SH,1688858933
138,san patricio,28.017,-97.5169,35.05,56,47,7.14,US,1688858933
139,la passe,45.5549,-0.8967,21.13,87,61,4.59,FR,1688858878
140,barra de santo antonio,-9.4047,-35.5072,23.6,88,61,3.68,BR,1688858935
141,odienne,9.51,-7.5692,23.13,92,85,1.89,CI,1688858936
142,invercargill,-46.4,168.35,7.06,89,100,1.42,NZ,1688858815
143,fale old settlement,-9.3852,-171.2468,28.56,74,58,7.44,TK,1688858778
144,vila franca do campo,37.7167,-25.4333,18.23,72,29,0.65,PT,1688858938
145,tolanaro,-25.0319,46.9987,21.04,78,0,4.12,MG,1688858938
146,thompson,55.7435,-97.8558,19.09,59,75,6.17,CA,1688858790
147,howard springs,-12.497,131.047,21.01,58,58,5.09,AU,1688858939
148,lihue,21.9789,-159.3672,28.77,60,40,8.75,US,1688858871
149,tougan,13.0667,-3.0667,30.94,42,54,2.81,BF,1688858940
150,hamilton,39.1834,-84.5333,25.55,82,75,1.54,US,1688858731
151,kingston,17.997,-76.7936,29.58,81,40,7.2,JM,1688858864
152,bamboo flat,11.7,92.7167,24.05,94,75,1.03,IN,1688858942
153,nema,57.5067,50.5011,16.76,95,82,2.16,RU,1688858943
154,port saint john's,-31.6229,29.5448,16.69,66,68,5.72,ZA,1688858943
155,inarajan village,13.2736,144.7484,30.22,86,100,6.76,GU,1688858944
156,glace bay,46.1969,-59.957,24.94,85,75,3.09,CA,1688858944
157,udachny,66.4167,112.4,20.82,49,69,5.88,RU,1688858945
158,vorgashor,67.5833,63.95,7.63,71,99,2.26,RU,1688858945
159,harlan,41.653,-95.3255,24.81,68,84,3.57,US,1688858946
160,punta arenas,-53.15,-70.9167,-1.94,86,0,2.06,CL,1688858947
161,chibougamau,49.9168,-74.3659,22.79,56,100,2.06,CA,1688858890
162,esperanza,19.5847,-70.9849,30.32,72,9,1.79,DO,1688858647
163,noumea,-22.2763,166.4572,23.99,99,64,3.1,NC,1688858734
164,manismata,-2.4667,111.0333,22.33,98,93,1.18,ID,1688858949
165,port mathurin,-19.6833,63.4167,23.15,71,60,10.04,MU,1688858949
166,al wafrah,28.6392,47.9306,35.02,12,5,5.38,KW,1688858950
167,sao paulo de olivenca,-3.3783,-68.8725,25.4,87,100,0.74,BR,1688858950
168,tubarjal,30.4999,38.216,27.07,36,0,5.84,SA,1688858951
169,arraial do cabo,-22.9661,-42.0278,23.22,59,39,2.94,BR,1688858905
170,itoman,26.1247,127.6694,30.01,82,75,4.63,JP,1688858953
171,enriquillo,17.9,-71.2333,30.82,76,96,3.75,DO,1688858954
172,puerto deseado,-47.7503,-65.8938,0.98,76,6,4.08,AR,1688858954
173,constantia,44.1833,28.65,19.38,69,100,10.84,RO,1688858955
174,hovd,48.0056,91.6419,17.1,45,4,2.95,MN,1688858956
175,talnakh,69.4865,88.3972,14.56,89,100,3.44,RU,1688858957
176,kpandae,8.4689,-0.0113,22.81,95,97,1.63,GH,1688858957
177,motueka,-41.1333,173.0167,11.72,84,100,0.91,NZ,1688858958
178,qaqortoq,60.7167,-46.0333,7.87,82,11,2.39,GL,1688858924
179,la'ie,21.6477,-157.9253,30.98,60,74,1.79,US,1688858959
180,salavan,15.7167,106.4167,23.46,93,100,1.42,LA,1688858960
181,mount pearl,47.5166,-52.7813,18.19,94,40,1.54,CA,1688858794
182,eirunepe,-6.6603,-69.8736,23.59,96,72,0.22,BR,1688858961
183,general acha,-37.377,-64.6043,10.2,72,100,3.16,AR,1688858962
184,stanley,54.868,-1.6985,16.96,92,20,0.51,GB,1688858962
185,weining,26.85,104.2333,16.62,97,100,1.22,CN,1688858963
186,coquimbo,-29.9533,-71.3436,13.85,88,0,2.06,CL,1688858597
187,n'zeto,-7.2312,12.8666,20.16,93,20,2.78,AO,1688858964
188,suva,-18.1416,178.4415,27.71,74,75,1.03,FJ,1688858802
189,makokou,0.5738,12.8642,21.36,89,88,1.46,GA,1688858965
190,cabedelo,-6.9811,-34.8339,24.37,84,65,4.18,BR,1688858966
191,dryden,49.7833,-92.7503,20.16,37,0,5.14,CA,1688858966
192,west island,-12.1568,96.8225,24.99,83,40,5.66,CC,1688858967
193,kolonia,50.9333,6.95,24.9,64,0,2.06,DE,1688858835
194,rio bueno,-40.3167,-72.9667,8.08,95,77,1.85,CL,1688858968
195,san antonio de pale,-1.4014,5.6325,23.44,85,100,4.55,GQ,1688858969
196,broome,42.2506,-75.833,27.42,66,20,0.89,US,1688858970
197,mek'ele,13.4967,39.4753,18.41,75,91,2.97,ET,1688858970
198,east london,-33.0153,27.9116,13.17,63,8,9.35,ZA,1688858941
199,neiafu,-18.65,-173.9833,26.38,83,20,2.57,TO,1688858971
200,burkburnett,34.0979,-98.5706,35.5,49,20,2.57,US,1688858972
201,khomeyni shahr,32.7002,51.5211,23.57,17,2,2.24,IR,1688858973
202,banda aceh,5.5577,95.3222,25.96,80,98,4.06,ID,1688858974
203,reyes,-14.3167,-67.3833,25.69,63,24,1.04,BO,1688858974
204,mount isa,-20.7333,139.5,13.87,41,3,5.14,AU,1688858975
205,hermanus,-34.4187,19.2345,8.22,71,67,6.72,ZA,1688858976
206,alice springs,-23.7,133.8833,6.75,87,97,2.82,AU,1688858976
207,carnarvon,-24.8667,113.6333,14.29,51,0,6.07,AU,1688858977
208,bilibino,68.0546,166.4372,22.75,32,54,5.51,RU,1688858977
209,sarangani,5.4033,125.4636,28.17,77,76,6.34,PH,1688858978
210,port-cartier,50.0334,-66.8654,19.3,82,86,1.83,CA,1688858979
211,malango,-2.9627,119.9001,19.3,89,25,0.47,ID,1688858980
212,ulladulla,-35.35,150.4667,13.66,55,0,6.39,AU,1688858980
213,estreito,-5.7833,-43.25,24.45,75,100,1.47,BR,1688858981
214,waingapu,-9.6567,120.2641,24.12,85,2,4.07,ID,1688858982
215,lazaro cardenas,17.9583,-102.2,29.69,70,18,5.91,MX,1688858982
216,bandraboua,-12.7044,45.1223,21.82,76,79,2.03,YT,1688858983
217,iskateley,67.6803,53.1512,5.0,79,100,4.59,RU,1688858984
218,mersa matruh,31.3525,27.2453,25.11,83,0,3.09,EG,1688858984
219,pathein,16.7833,94.7333,25.95,88,100,2.07,MM,1688858985
220,vila velha,-20.3297,-40.2925,23.97,82,0,3.6,BR,1688858865
221,petropavlovsk-kamchatsky,53.0452,158.6483,18.33,72,75,2.0,RU,1688858986
222,sola,-13.8833,167.55,25.87,84,99,9.46,VU,1688858986
223,mirriah,13.7073,9.1501,33.04,34,87,2.97,NE,1688858987
224,zhanaozen,43.3,52.8,29.72,19,6,7.2,KZ,1688858988
225,kailua-kona,19.6406,-155.9956,28.98,77,75,5.66,US,1688858969
226,smithers,54.7804,-127.1743,32.18,22,75,2.57,CA,1688858989
227,hasaki,35.7333,140.8333,28.45,89,100,6.83,JP,1688858989
228,coahuayana de hidalgo,18.7,-103.6583,26.09,87,99,1.39,MX,1688858990
229,zimmerman,45.4433,-93.59,26.48,39,40,4.12,US,1688858990
230,eyl,7.9803,49.8164,25.82,65,51,11.64,SO,1688858991
231,nova vicosa,-17.8919,-39.3719,22.8,83,59,4.99,BR,1688858991
232,richards bay,-28.783,32.0377,20.03,82,10,7.9,ZA,1688858992
233,mawu,29.5923,107.3139,24.12,93,64,1.27,CN,1688858992
234,atherton,53.5237,-2.4935,18.49,96,100,0.45,GB,1688858993
235,uyuni,-20.4597,-66.825,5.84,16,12,3.83,BO,1688858993
236,gillette,44.2911,-105.5022,23.39,49,40,4.63,US,1688858757
237,bardai,11.65,7.2333,24.05,78,100,4.11,NG,1688858995
238,douentza,14.9951,-2.9517,33.64,38,63,6.62,ML,1688858995
239,suicheng,33.8963,117.9331,28.41,81,35,5.4,CN,1688858996
240,bereznik,62.8551,42.7072,10.29,98,100,2.9,RU,1688858997
241,thohoyandou,-22.9456,30.485,14.96,49,0,2.2,ZA,1688858997
242,gadzhiyevo,69.2551,33.3362,6.05,75,100,4.8,RU,1688858998
243,klaksvik,62.2266,-6.589,14.51,94,84,5.03,FO,1688858840
244,ust-tsilma,65.441,52.1498,9.44,90,100,1.83,RU,1688858999
245,dalnegorsk,44.5604,135.5701,26.47,60,87,0.86,RU,1688858999
246,shuangyang,43.5242,125.6736,21.69,80,41,3.06,CN,1688859000
247,saint-georges,12.0564,-61.7485,25.82,89,75,7.72,GD,1688858443
248,qamdo,31.1667,97.2333,9.44,74,100,0.16,CN,1688859001
249,kapenguria,1.2511,35.0895,11.48,88,45,2.44,KE,1688859002
250,kapa'a,22.0752,-159.319,29.18,68,40,8.75,US,1688859004
251,vandalia,39.8906,-84.1988,24.62,79,100,3.09,US,1688858867
252,villa gesell,-37.2639,-56.973,9.47,65,97,4.9,AR,1688859007
253,kone,-21.0595,164.8658,24.54,61,63,2.55,NC,1688859008
254,papatowai,-46.5619,169.4708,9.28,81,100,0.83,NZ,1688859008
255,tondano,1.3038,124.9112,21.05,71,95,1.16,ID,1688859009
256,ahmadpur east,29.1431,71.2598,31.08,63,53,4.33,PK,1688859009
257,kalmunai,7.4167,81.8167,26.17,81,94,2.03,LK,1688859010
258,tomatlan,19.9333,-105.25,30.55,52,95,3.89,MX,1688859011
259,toshloq,40.4772,71.7678,20.69,49,19,2.06,UZ,1688859011
260,papao,-17.75,-149.55,28.82,82,97,9.05,PF,1688859013
261,nalut,30.3333,10.85,30.35,18,0,4.35,LY,1688859013
262,st. john's,47.5649,-52.7093,18.66,94,40,1.54,CA,1688858779
263,ak-dovurak,51.1833,90.6,17.53,61,31,0.63,RU,1688859014
264,sparti,37.0733,22.4297,24.97,72,0,1.08,GR,1688859015
265,samana,19.2056,-69.3369,27.98,87,27,3.72,DO,1688859016
266,satuba,-9.5633,-35.8244,23.45,94,100,2.06,BR,1688858822
267,todos santos,23.45,-110.2167,29.13,50,23,2.48,MX,1688859017
268,huarmey,-10.0681,-78.1522,20.79,79,0,5.01,PE,1688859018
269,aban,56.67,96.06,18.53,92,98,2.03,RU,1688859018
270,lerwick,60.1545,-1.1494,16.0,87,41,4.3,GB,1688859019
271,port augusta,-32.5,137.7667,14.84,60,98,4.27,AU,1688859019
272,whitehorse,60.7161,-135.0538,30.05,18,20,6.71,CA,1688858907
273,atafu village,-8.5421,-172.5159,28.75,76,14,8.68,TK,1688859021
274,codrington,-38.2667,141.9667,13.49,79,28,8.14,AU,1688859021
275,arenapolis,-14.4503,-56.8461,23.79,43,1,1.69,BR,1688859023
276,rikaze,29.25,88.8833,16.45,44,94,1.55,CN,1688859023
277,cooper's town,26.8667,-77.5167,29.53,74,85,7.62,BS,1688859024
278,happy valley-goose bay,53.3168,-60.3315,22.17,88,100,1.03,CA,1688858935
279,rabaul,-4.1967,152.1721,27.76,76,97,3.48,PG,1688859025
280,polyarnyy,69.1989,33.4478,6.28,75,98,4.75,RU,1688859000
281,douglas,41.3,-96.167,25.38,53,0,1.54,US,1688859025
282,tanout,14.9709,8.8879,32.56,35,82,3.47,NE,1688859027
283,tazovsky,67.4667,78.7,9.9,82,37,4.12,RU,1688859028
284,tofol,5.3248,163.0078,28.5,77,100,4.99,FM,1688859028
285,taoudenni,22.6783,-3.9836,40.92,11,0,3.38,ML,1688858838
286,tsengel,49.4783,100.8894,14.41,96,100,0.51,MN,1688859030
287,selfoss,63.9331,-20.9971,13.91,73,45,1.43,IS,1688859030
288,saint-philippe,-21.3585,55.7679,19.77,73,51,4.22,RE,1688859031
289,cabo san lucas,22.8909,-109.9124,32.61,70,75,5.14,MX,1688858836
290,bloomsburg,41.0037,-76.4549,29.52,64,99,0.54,US,1688859032
291,serdar,38.9764,56.2757,29.03,17,0,5.88,TM,1688859033
292,san luis de la loma,17.2706,-100.8939,30.44,67,43,4.52,MX,1688858917
293,christies beach,-35.1396,138.4698,13.47,88,47,3.13,AU,1688859034
294,sterling,39.0062,-77.4286,29.65,74,75,2.24,US,1688859035
295,beau vallon,-20.4189,57.6953,23.13,78,75,6.69,MU,1688859035
296,pierre,44.3683,-100.351,27.38,31,0,3.09,US,1688859036
297,santa ana,33.7456,-117.8678,33.0,61,20,5.66,US,1688858946
298,island harbour,50.724,-1.2758,17.74,93,99,1.34,GB,1688859037
299,mahina,-17.5065,-149.489,28.87,65,75,4.63,PF,1688859037
300,tambura,5.6,27.4667,18.87,95,24,0.51,SS,1688859038
301,mangrol,21.1167,70.1167,27.45,86,83,6.25,IN,1688859039
302,arkadelphia,34.1209,-93.0538,29.54,74,20,3.6,US,1688859039
303,poronaysk,49.2167,143.1167,20.15,74,1,2.5,RU,1688858870
304,kruisfontein,-34.0033,24.7314,9.38,72,75,8.91,ZA,1688859040
305,nueva palestina,15.8,-92.75,23.29,95,94,0.93,MX,1688859041
306,nikolayevsk-on-amure,53.1406,140.73,23.47,70,86,1.28,RU,1688859042
307,cudillero,43.5622,-6.1459,19.51,83,75,1.54,ES,1688858986
308,ulaangom,49.9811,92.0667,22.08,45,35,3.57,MN,1688859043
309,corner brook,48.9667,-57.9484,23.09,91,85,1.33,CA,1688859043
310,mejit,10.2753,170.8646,28.23,72,78,8.45,MH,1688859044
311,la mojonera,37.2923,-2.4373,23.25,55,49,1.27,ES,1688859044
312,shchyolkino,45.4291,35.8223,23.68,84,92,6.52,UA,1688859045
313,santiago de cao,-7.9589,-79.2392,23.07,83,4,4.63,PE,1688859045
314,afaahiti,-17.75,-149.2833,27.93,85,98,8.55,PF,1688858947
315,anxiang,29.4,112.15,27.62,86,99,3.72,CN,1688859047
316,kilkeel,54.062,-6.0031,13.0,85,84,2.0,GB,1688859047
317,santa terezinha,-29.9002,-50.0904,16.54,86,100,2.22,BR,1688859049
318,rawson,-43.3002,-65.1023,6.85,93,100,3.77,AR,1688859029
319,kenai,60.5544,-151.2583,13.41,75,100,4.12,US,1688858604
320,kadiri,14.1167,78.1667,24.03,71,100,6.38,IN,1688858629
321,calama,-22.4667,-68.9333,13.27,10,0,4.63,CL,1688859051
322,lorengau,-2.0226,147.2712,27.0,82,100,1.66,PG,1688858907
323,tari,12.4086,4.4914,25.97,69,100,7.91,NG,1688859052
324,anadyr,64.75,177.4833,11.28,76,40,3.0,RU,1688859053
325,holyhead,53.3062,-4.6321,16.0,82,100,4.12,GB,1688858963
326,fortuna,40.5982,-124.1573,19.96,71,100,5.14,US,1688859054
327,nova sintra,14.8667,-24.7167,22.55,89,98,6.61,CV,1688859054
328,tutoia,-2.7619,-42.2744,25.07,89,15,3.84,BR,1688859055
329,mugia,43.1041,-9.2179,16.06,82,38,4.38,ES,1688859056
330,escanaba,45.7453,-87.0646,18.17,94,100,3.09,US,1688858902
331,ati,13.2154,18.3353,25.71,73,97,7.37,TD,1688859057
332,ancud,-41.8697,-73.8203,8.56,86,100,10.56,CL,1688859057
333,maulavi bazar,24.4833,91.7833,25.65,94,100,1.42,BD,1688859058
334,aquidauana,-20.4711,-55.7872,26.57,42,90,0.97,BR,1688859058
335,prado,-17.3411,-39.2208,23.48,79,55,4.77,BR,1688858942
336,duartina,-22.4144,-49.4039,23.64,60,66,2.16,BR,1688859060
337,rexburg,43.826,-111.7897,29.44,20,0,0.0,US,1688858766
338,tsiombe,-25.3,45.4833,18.66,72,1,1.77,MG,1688859061
339,caleta de carquin,-11.0925,-77.6267,20.22,78,3,5.6,PE,1688859061
340,trincomalee,8.5711,81.2335,26.39,81,92,7.69,LK,1688859062
341,bouarfa,32.53,-1.95,30.35,13,27,6.74,MA,1688859062
342,san andres,12.5847,-81.7006,30.01,74,20,6.69,CO,1688859063
343,mokhsogollokh,61.4681,128.9203,15.19,41,27,5.59,RU,1688859063
344,filadelfia,39.9523,-75.1638,27.15,83,75,2.06,US,1688858895
345,iglino,54.8324,56.4126,16.05,66,10,1.21,RU,1688859065
346,kaa-khem,51.6833,94.7333,18.85,69,62,0.55,RU,1688859066
347,dongcun,36.7767,121.1597,27.47,76,87,1.18,CN,1688859067
348,axim,4.8699,-2.2405,24.6,90,95,3.51,GH,1688859067
349,chita,52.0333,113.55,13.94,100,40,1.0,RU,1688858918
350,cannonvale,-20.2833,148.7,19.66,46,84,6.7,AU,1688859069
351,nar'yan-mar,67.6713,53.087,5.15,78,100,4.58,RU,1688859070
352,dawei,14.0833,98.2,25.67,92,87,0.92,MM,1688859070
353,langepas,61.2544,75.2124,14.66,89,21,3.84,RU,1688859071
354,linevo,54.4589,83.3764,14.18,93,62,4.38,RU,1688859072
355,harsin,34.2721,47.5861,22.45,27,0,1.3,IR,1688859072
356,sokone,13.8833,-16.3667,29.15,65,97,4.48,SN,1688859073
357,thunder bay,48.4001,-89.3168,19.95,52,20,4.12,CA,1688858222
358,port pirie,-33.1833,138.0167,13.77,73,70,4.04,AU,1688859074
359,hafar al-batin,28.4328,45.9708,32.32,20,0,0.0,SA,1688859075
360,colchani,-20.3,-66.9333,6.44,16,15,4.83,BO,1688859076
361,puerto baquerizo moreno,-0.9,-89.6,24.89,79,40,6.88,EC,1688859010
362,balykshi,47.0667,51.8667,30.0,23,0,4.0,KZ,1688859078
363,inderbor,48.55,51.7833,31.88,21,71,3.07,KZ,1688859078
364,lincoln,40.8,-96.667,24.94,57,0,3.09,US,1688858901
365,brookings,44.3114,-96.7984,22.27,51,75,3.6,US,1688859079
366,kosti,13.1629,32.6635,29.03,53,38,4.9,SD,1688859080
367,sitka,57.0531,-135.33,16.94,63,20,9.26,US,1688859080
368,abeche,13.8292,20.8324,24.73,68,100,5.39,TD,1688859081
369,noosa heads,-26.3833,153.15,17.84,57,61,6.33,AU,1688859082
370,magadan,59.5667,150.8,11.5,94,96,2.34,RU,1688859082
371,lensk,60.7253,114.9278,21.65,50,5,1.22,RU,1688859083
372,kurumkan,54.3,110.3,19.47,80,100,1.41,RU,1688859083
373,phillip island,-38.4835,145.231,12.35,93,100,9.64,AU,1688859084
374,wesselsbron,-27.8549,26.3658,6.26,64,0,3.02,ZA,1688859085
375,pitimbu,-7.4706,-34.8086,24.33,85,65,3.99,BR,1688859085
376,al kharijah,25.4514,30.5464,29.34,27,0,4.48,EG,1688859086
377,keflavik,64.0049,-22.5624,12.95,76,75,2.57,IS,1688859086
378,churachandpur,24.3333,93.6667,20.64,99,100,0.58,IN,1688859087
379,berezovyy,51.6667,135.7,26.25,63,54,1.24,RU,1688859087
380,kelibia,36.8476,11.0939,28.14,78,20,1.54,TN,1688859088
381,tarauaca,-8.1614,-70.7656,24.46,89,71,0.96,BR,1688858802
382,minas de marcona,-15.2119,-75.1103,12.24,85,19,5.82,PE,1688859089
383,mil'kovo,55.6078,37.7956,16.22,70,99,2.35,RU,1688859090
384,alofi,-19.0595,-169.9187,26.94,74,45,3.09,NU,1688859090
385,nadym,65.5333,72.5167,11.04,64,29,4.4,RU,1688859091
386,siracusa,37.0881,15.2792,23.77,63,0,2.45,IT,1688859091
387,myitkyina,25.3833,97.4,23.83,100,100,0.33,MM,1688859092
388,sosnogorsk,63.6023,53.8817,11.56,95,100,2.47,RU,1688859092
389,al bardiyah,31.7561,25.0865,23.9,93,0,7.95,LY,1688859093
390,ban houayxay,20.2453,100.4547,24.15,98,100,0.29,LA,1688859094
391,amursk,50.2261,136.8994,20.61,89,62,1.53,RU,1688859094
392,saint-benoit,-21.038,55.7194,23.04,74,18,4.25,RE,1688859095
393,necochea,-38.5473,-58.7368,6.87,81,93,3.81,AR,1688859095
394,manaure,11.7751,-72.4445,29.27,70,97,7.43,CO,1688859096
395,kerikeri,-35.2268,173.9474,16.06,84,70,0.89,NZ,1688859096
396,dali,25.7,100.1833,18.84,91,99,1.74,CN,1688859097
397,acapulco de juarez,16.8634,-99.8901,29.9,70,75,5.66,MX,1688859097
398,kropyvnytskyi,48.5132,32.2597,17.06,74,68,8.25,UA,1688859098
399,zavetnoye,47.1194,43.8903,21.65,80,100,1.42,RU,1688859099
400,klyuchi,52.2667,79.1667,17.98,69,4,2.34,RU,1688859099
401,san ignacio,17.1561,-89.0714,30.08,74,40,2.06,BZ,1688859100
402,agua branca,-5.8922,-42.6361,24.56,71,95,2.08,BR,1688859101
403,tazacorte,28.629,-17.9293,22.54,94,0,3.09,ES,1688859101
404,la asuncion,11.0333,-63.8628,26.71,83,79,7.03,VE,1688859102
405,qusmuryn,52.4503,64.6311,18.97,61,32,1.61,KZ,1688859102
406,mandiana,10.6333,-8.6833,24.68,80,58,1.3,GN,1688859103
407,funafuti,-8.5243,179.1942,32.0,79,75,8.23,TV,1688859103
408,vernon,50.2581,-119.2691,37.18,17,6,1.54,CA,1688859012
409,houghton,47.1219,-88.569,18.71,83,40,2.57,US,1688859104
410,miches,18.9836,-69.0476,26.74,86,34,3.61,DO,1688859105
411,puerto cabezas,14.0351,-83.3888,29.98,84,40,3.09,NI,1688859106
412,taltal,-25.4,-70.4833,15.54,79,60,1.84,CL,1688859106
413,northam,51.0333,-4.2167,13.14,92,52,3.51,GB,1688859107
414,sao jose da coroa grande,-8.8978,-35.1478,24.04,88,76,3.24,BR,1688859107
415,benguela,-12.5763,13.4055,19.18,88,33,0.16,AO,1688858666
416,chui,-33.6971,-53.4616,11.18,77,52,2.62,UY,1688859108
417,viedma,-40.8135,-62.9967,7.39,86,100,3.77,AR,1688859109
418,priargunsk,50.3691,119.1012,20.68,72,100,1.78,RU,1688859110
419,igrim,63.1906,64.4162,13.66,72,100,1.54,RU,1688859111
420,doka,13.5167,35.7667,22.53,88,100,5.09,SD,1688859111
421,telhara,21.0269,76.8389,25.28,83,100,5.34,IN,1688859113
422,camiri,-20.05,-63.5167,19.59,84,99,1.27,BO,1688859113
423,corund,46.4667,25.1833,10.94,78,100,1.7,RO,1688859114
424,kirovsk,48.6375,38.6428,18.73,96,100,3.56,UA,1688859114
425,goundi,9.3627,17.366,22.29,90,79,1.76,TD,1688859115
426,rongelap,11.1635,166.8941,28.11,79,91,7.52,MH,1688858905
427,porto santo stefano,42.4338,11.1237,22.79,73,0,2.31,IT,1688859116
428,nelson bay,-32.7167,152.15,16.11,56,0,6.71,AU,1688859116
429,novodvinsk,64.4165,40.8122,5.73,89,100,2.59,RU,1688859118
430,sirte,31.2089,16.5887,26.38,62,0,2.8,LY,1688859118
431,porto novo,6.4965,2.6036,25.9,94,82,2.56,BJ,1688859119
432,desaguadero,-16.5656,-69.0417,8.15,39,13,1.88,PE,1688859120
433,kirensk,57.7853,108.1119,19.61,59,100,3.0,RU,1688859121
434,campo gallo,-26.5833,-62.85,17.04,84,39,1.68,AR,1688859121
435,howrah,22.5892,88.3103,28.0,89,40,3.6,IN,1688859122
436,lagoa,39.05,-27.9833,19.6,76,17,4.24,PT,1688859122
437,moyynkum,44.2914,72.9469,22.07,47,6,3.12,KZ,1688859123
438,zarghun shahr,32.8473,68.4457,18.91,55,21,1.33,AF,1688859124
439,khovd,48.0056,91.6419,18.74,41,9,2.47,MN,1688859124
440,haiku-pauwela,20.9219,-156.3051,28.01,59,40,10.8,US,1688859125
441,kirakira,-10.4544,161.9205,28.23,78,100,6.0,SB,1688859125
442,taco pozo,-25.6167,-63.2833,17.92,78,29,2.14,AR,1688859126
443,holualoa,19.6228,-155.9522,26.91,78,75,5.66,US,1688859126
444,sao vicente,-23.9631,-46.3919,28.1,26,94,0.45,BR,1688858980
445,flying fish cove,-10.4217,105.6791,24.82,94,100,4.63,CX,1688859127
446,banyo,6.75,11.8167,18.38,95,94,0.78,CM,1688859128
447,prince rupert,54.3161,-130.3201,14.05,91,100,3.6,CA,1688859129
448,springbok,-29.6643,17.8865,3.78,94,23,3.22,ZA,1688859129
449,castillos,-34.1667,-53.8333,9.75,79,13,2.17,UY,1688859130
450,bela,25.9333,81.9833,29.27,76,23,3.0,IN,1688859130
451,kavaratti,10.5669,72.642,28.19,74,100,7.08,IN,1688859131
452,chonchi,-42.6128,-73.8092,8.56,98,100,1.74,CL,1688859131
453,conduaga,8.862,117.4893,27.21,82,100,0.62,PH,1688859132
454,belyy yar,53.6039,91.3903,16.94,77,0,3.0,RU,1688859132
455,kroya,-7.6331,109.2461,24.42,93,73,1.57,ID,1688859133
456,ambovombe,-25.1667,46.0833,19.19,76,0,2.8,MG,1688859134
457,kumagunnam,13.1551,10.6342,32.15,36,76,1.79,NG,1688859134
458,esquel,-42.9,-71.3167,1.02,95,100,0.38,AR,1688859135
459,barcelos,41.5388,-8.6151,17.73,92,5,0.91,PT,1688859135
460,mariinsk,56.2139,87.7472,17.12,95,84,4.07,RU,1688859136
461,kiunga,-6.1219,141.2906,24.44,98,100,1.44,PG,1688858888
462,egilsstadir,65.2653,-14.3948,17.95,72,40,3.09,IS,1688859137
463,severo-yeniseyskiy,60.3725,93.0408,17.98,71,90,2.14,RU,1688859137
464,lesnoy,57.6198,63.0784,15.58,70,67,2.26,RU,1688859138
465,kaitong,44.8135,123.15,22.18,82,95,2.13,CN,1688859139
466,erdenet,49.0333,104.0833,17.42,81,88,1.29,MN,1688859139
467,remire-montjoly,4.9167,-52.2667,26.02,94,100,0.51,GF,1688859140
468,rosetta,31.4044,30.4164,25.56,81,0,8.28,EG,1688859140
469,srivardhan,18.0333,73.0167,27.03,85,83,7.52,IN,1688859141
470,at taj,24.2049,23.2857,27.46,24,1,4.2,LY,1688859141
471,kuching,1.55,110.3333,27.29,92,20,0.0,MY,1688859142
472,ko pha ngan,9.7578,100.0291,24.38,88,100,6.09,TH,1688859143
473,ixtapa,20.7,-105.2,27.35,94,100,5.14,MX,1688859143
474,tralee,52.2704,-9.7026,12.83,87,100,2.86,IE,1688859144
475,yar,58.249,52.1026,15.51,93,73,2.54,RU,1688859144
476,peace river,56.2501,-117.286,31.17,30,20,2.57,CA,1688859111
477,yebaishou,41.3975,119.6408,25.43,54,47,2.63,CN,1688859145
478,caspe,41.234,-0.0395,25.86,61,54,3.35,ES,1688859146
479,manggar,-2.8833,108.2667,27.86,79,97,6.07,ID,1688859146
480,tindouf,27.6711,-8.1474,30.25,28,0,5.66,DZ,1688859147
481,santa elena de uairen,4.6167,-61.1333,19.85,87,59,1.15,VE,1688859148
482,murzzuschlag,47.6,15.6833,17.72,94,63,1.22,AT,1688859148
483,nili,33.7218,66.1302,17.34,27,8,2.92,AF,1688859149
484,labuan,5.2767,115.2417,24.2,100,20,0.0,MY,1688859149
485,olds,51.7834,-114.102,26.47,36,1,1.03,CA,1688859133
486,darwin,-12.4611,130.8418,21.61,47,0,4.63,AU,1688859150
487,coronel suarez,-37.4547,-61.9334,7.27,81,100,2.09,AR,1688859151
488,nikol'sk,53.7189,46.0712,19.18,78,98,2.69,RU,1688859151
489,lata,40.1629,-8.3327,13.34,94,1,0.69,PT,1688858877
490,akrehamn,59.2667,5.1833,16.34,88,54,2.57,NO,1688859152
491,lyantor,61.6195,72.1555,15.04,81,45,3.72,RU,1688859153
492,nuriootpa,-34.4833,139.0,10.31,94,96,6.71,AU,1688859153
493,al jawf,29.5,38.75,26.02,30,7,5.64,SA,1688859154
494,qui nhon,13.7667,109.2333,26.54,85,28,1.47,VN,1688859155
495,banswara,23.55,74.45,25.79,92,99,6.1,IN,1688859155
496,vershino-darasunskiy,52.35,115.5167,18.16,79,60,3.21,RU,1688859156
497,carinhanha,-14.3047,-43.765,25.06,38,13,2.4,BR,1688859105
498,pasuquin,18.3328,120.6177,26.97,89,40,2.06,PH,1688859157
499,dawesville,30.9224,-84.0091,33.23,58,0,1.54,US,1688859157
500,sheridan,44.8333,-106.9173,27.79,41,0,2.06,US,1688859158
501,goondiwindi,-28.55,150.3167,13.6,54,0,3.84,AU,1688859158
502,yuzhno-kurilsk,44.0306,145.8556,16.56,83,39,3.56,RU,1688859159
503,port nelson,23.6333,-74.8333,28.19,71,44,3.86,BS,1688859160
504,acarau,-2.8856,-40.12,25.7,85,4,6.16,BR,1688859158
505,la serena,-29.9078,-71.2542,13.73,88,0,2.06,CL,1688859161
506,strugi-krasnyye,58.2675,29.1114,11.71,98,6,2.63,RU,1688859162
507,usta muhammad,28.1794,68.0445,33.3,46,100,1.79,PK,1688859163
508,broken hill,-31.95,141.4333,9.11,77,0,3.58,AU,1688858863
509,turaif,31.6725,38.6637,24.14,46,0,5.66,SA,1688859164
510,saint-leu,-21.15,55.2833,22.46,82,24,2.29,RE,1688859164
511,shingu,33.7333,135.9833,28.13,82,98,4.59,JP,1688859165
512,lindi,-10.0,39.7167,18.62,98,68,1.93,TZ,1688859166
513,rajanpur,29.1035,70.325,31.91,58,71,2.94,PK,1688859167
514,votuporanga,-20.4228,-49.9728,21.67,38,6,1.24,BR,1688859136
515,boromo,11.75,-2.9333,26.24,68,64,2.3,BF,1688859168
516,amahai,-3.3333,128.9167,25.54,91,100,6.74,ID,1688858869
517,koz'modem'yansk,56.3367,46.5711,17.6,95,98,0.86,RU,1688859045
518,hami,42.8,93.45,27.91,29,95,0.41,CN,1688859169
519,ban nam yuen,9.8769,98.8659,25.56,97,100,1.23,TH,1688859170
520,laguna,38.421,-121.4238,33.63,39,0,5.14,US,1688858949
521,smidovich,48.6,133.8167,25.57,67,61,3.21,RU,1688859171
522,nuuk,64.1835,-51.7216,9.34,76,25,4.12,GL,1688858932
523,brak,27.5496,14.2714,28.84,27,17,5.01,LY,1688859172
524,horta,38.5333,-28.6333,19.45,84,11,1.79,PT,1688859172
525,pundong,-7.9522,110.3486,24.84,91,70,2.72,ID,1688859173
526,atar,20.5169,-13.0499,34.46,16,8,7.18,MR,1688859173
527,bonthe,7.5264,-12.505,25.47,82,96,3.01,SL,1688859174
528,fiambala,-27.6871,-67.6149,15.86,26,31,1.17,AR,1688859174
529,lucas,41.6501,-83.6666,25.08,70,100,2.57,US,1688859175
530,kuusamo,65.9667,29.1833,7.02,93,19,0.51,FI,1688859176
531,dunda,-8.1167,34.25,13.74,74,11,1.24,TZ,1688859176
532,hiratacho,35.4333,132.8167,25.01,100,75,1.54,JP,1688859177
533,tura,25.5198,90.2201,23.76,96,100,2.37,IN,1688859177
534,mandera,3.9366,41.867,24.8,60,72,7.92,KE,1688859178
535,amga,60.8953,131.9608,14.7,40,56,5.94,RU,1688859178
536,bratsk,56.1325,101.6142,21.27,67,93,1.61,RU,1688859179
537,harper,4.375,-7.7169,24.84,86,80,3.98,LR,1688859179
538,corinto,37.9407,22.9573,24.94,53,0,0.24,GR,1688859180
539,cambria,35.5641,-121.0808,34.02,60,8,7.43,US,1688859180
540,yambio,4.5721,28.3955,18.72,96,19,1.22,SS,1688859181
541,angaur state,6.906,134.13,28.68,75,28,2.85,PW,1688859182
542,olyokminsk,60.3736,120.4264,20.04,40,0,1.22,RU,1688859182
543,kangding,30.0513,101.9603,17.96,61,98,0.25,CN,1688859183
544,masterton,-40.9597,175.6575,11.6,98,100,2.11,NZ,1688858920
545,brisas de zicatela,15.8369,-97.0419,26.29,61,75,2.57,MX,1688859184
546,christchurch,-43.5333,172.6333,12.17,94,100,4.12,NZ,1688858722
547,changling,44.2653,124.0005,18.33,63,100,1.79,CN,1688859186
548,leninskoye,41.7589,69.3864,21.7,35,0,2.23,KZ,1688859187
549,brokopondo,4.75,-55.1667,25.34,86,22,2.12,SR,1688859187
550,rey bouba,8.6724,14.1786,24.68,75,80,0.93,CM,1688859188
551,oltinko'l,40.8011,72.1634,22.81,33,10,2.66,UZ,1688859188
552,kotputli,27.7167,76.2,28.68,74,98,3.1,IN,1688859189
553,stuttgart,48.7823,9.177,22.7,68,0,1.03,DE,1688859189
554,sikonge,-5.6333,32.7667,19.19,49,35,4.64,TZ,1688859190
555,la sarre,48.8002,-79.1996,19.12,72,84,2.71,CA,1688859191
556,sechura,-5.5569,-80.8222,24.01,70,89,8.42,PE,1688859191
557,ashland,40.8167,-82.2665,24.56,89,100,3.07,US,1688859192
558,dubbo,-32.25,148.6167,10.07,81,1,4.12,AU,1688859065
559,natal,-5.795,-35.2094,25.36,94,20,2.06,BR,1688859160
560,lakatoro,-16.0999,167.4164,26.63,70,70,4.44,VU,1688859193
561,saint-pierre,-21.3393,55.4781,20.32,64,0,3.09,RE,1688859194
562,altai,46.3722,96.2583,16.58,45,100,2.31,MN,1688859195
563,mangalia,43.8,28.5833,19.08,69,100,10.43,RO,1688859195
564,sanchor,24.7553,71.7722,27.1,90,100,6.4,IN,1688859196
565,punta alta,-38.8759,-62.0736,11.15,65,78,4.58,AR,1688859196
