City_ID,City,Lat,Lng,Max Temp,Humidity,Cloudiness,Wind Speed,Country,Date
0,eket,4.6412,7.9209,23.43,93,100,1.06,NG,1688879843
1,mirnyy,62.5353,113.9611,25.98,33,34,0.51,RU,1688879843
2,bredasdorp,-34.5322,20.0403,9.71,85,96,4.7,ZA,1688879844
3,ventspils,57.3894,21.5606,17.96,88,0,3.6,LV,1688879844
4,lepsy,46.235,78.9456,25.93,39,88,1.56,KZ,1688879845
5,la passe,45.5549,-0.8967,19.43,89,5,3.03,FR,1688879846
6,georgetown,5.4112,100.3354,28.96,81,40,1.54,MY,1688879632
7,puerto natales,-51.7236,-72.4875,-4.21,89,10,0.99,CL,1688879847
8,kiiminki,65.1314,25.7974,15.81,59,10,2.6,FI,1688879847
9,big bend,-26.8167,31.9333,14.33,70,0,1.35,SZ,1688879848
10,port-aux-francais,-49.35,70.2167,1.44,60,99,7.77,TF,1688879850
11,grytviken,-54.2811,-36.5092,-5.93,84,63,5.38,GS,1688879850
12,edinburgh of the seven seas,-37.0676,-12.3116,15.29,79,95,11.31,SH,1688879851
13,waitangi,-43.9535,-176.5597,9.34,89,78,3.13,NZ,1688879851
14,stanley,54.868,-1.6985,15.85,93,40,1.03,GB,1688879852
15,iqaluit,63.7506,-68.5145,5.85,93,75,5.14,CA,1688879853
16,tolanaro,-25.0319,46.9987,20.31,74,3,2.62,MG,1688879853
17,punta arenas,-53.15,-70.9167,-0.94,86,0,5.66,CL,1688879637
18,yellowknife,62.456,-114.3525,19.29,42,40,5.66,CA,1688879641
19,pacific grove,36.6177,-121.9166,14.27,84,100,4.12,US,1688879855
20,asau,46.4333,26.4,18.51,68,73,2.36,RO,1688879855
21,sisimiut,66.9395,-53.6735,8.55,83,100,1.75,GL,1688879856
22,vila franca do campo,37.7167,-25.4333,17.23,77,4,1.87,PT,1688879856
23,uva,56.9908,52.1852,24.95,66,67,0.88,RU,1688879857
24,san luis de la loma,17.2706,-100.8939,26.99,87,99,1.7,MX,1688879857
25,kapuskasing,49.4169,-82.4331,15.05,77,75,2.57,CA,1688879642
26,ekibastuz,51.6667,75.3667,25.9,33,42,4.65,KZ,1688879859
27,rio grande,-32.035,-52.0986,13.86,82,67,4.09,BR,1688879860
28,broken hill,-31.95,141.4333,15.05,50,0,5.1,AU,1688879860
29,saint-philippe,-21.3585,55.7679,23.77,75,59,6.71,RE,1688879861
30,fortuna,40.5982,-124.1573,14.19,85,100,3.09,US,1688879585
31,jamestown,42.097,-79.2353,19.8,88,75,2.06,US,1688879862
32,palm springs,33.8303,-116.5453,33.02,35,0,9.26,US,1688879725
33,wailua homesteads,22.0669,-159.378,27.24,77,40,8.23,US,1688879863
34,margaret river,-33.95,115.0667,16.14,70,100,7.7,AU,1688879864
35,hagere maryam,5.6333,38.2333,13.91,89,88,1.91,ET,1688879864
36,sorong,-0.8833,131.25,27.43,83,86,3.08,ID,1688879865
37,murakami,38.2333,139.4833,25.94,96,100,3.79,JP,1688879865
38,thompson,55.7435,-97.8558,12.09,94,75,1.54,CA,1688879866
39,ust-nera,64.5667,143.2,7.72,82,100,3.91,RU,1688879867
40,uturoa,-16.7333,-151.4333,27.01,81,7,8.72,PF,1688879868
41,jinchang,38.4953,102.1739,32.62,19,1,5.15,CN,1688879869
42,anadyr,64.75,177.4833,14.28,58,40,3.0,RU,1688879870
43,chandia,23.65,80.7,28.97,75,79,4.77,IN,1688879870
44,forster,-32.1667,152.5167,20.16,40,0,8.01,AU,1688879871
45,port lincoln,-34.7333,135.8667,14.69,70,88,6.55,AU,1688879760
46,tura,25.5198,90.2201,29.55,71,99,3.1,IN,1688879872
47,koutiala,12.3917,-5.4642,24.63,67,99,3.72,ML,1688879873
48,manokwari,-0.8667,134.0833,26.14,85,100,2.79,ID,1688879874
49,port elizabeth,-33.918,25.5701,10.05,87,40,9.77,ZA,1688879717
50,longyearbyen,78.2186,15.6401,6.91,87,75,5.14,SJ,1688879875
51,adamstown,-25.066,-130.1015,21.74,75,45,8.71,PN,1688879876
52,alta,69.9689,23.2717,11.59,72,57,1.54,NO,1688879876
53,fale old settlement,-9.3852,-171.2468,28.44,79,84,7.16,TK,1688879877
54,sitka,57.0531,-135.33,13.94,67,20,9.26,US,1688879714
55,northam,51.0333,-4.2167,14.66,92,86,4.25,GB,1688879878
56,ushuaia,-54.8,-68.3,3.81,75,75,9.26,AR,1688879879
57,hasaki,35.7333,140.8333,31.79,77,100,9.47,JP,1688879880
58,invercargill,-46.4,168.35,7.83,92,98,0.6,NZ,1688879880
59,bethel,41.3712,-73.414,23.47,86,75,0.0,US,1688879881
60,blackmans bay,-43.0167,147.3167,11.96,71,59,4.26,AU,1688879881
61,mount isa,-20.7333,139.5,22.87,23,5,5.66,AU,1688879882
62,bilibino,68.0546,166.4372,25.3,27,29,4.8,RU,1688879883
63,saynshand,44.8824,110.1163,27.43,30,1,1.65,MN,1688879883
64,haiku-pauwela,20.9219,-156.3051,24.73,81,40,6.69,US,1688879884
65,karratha,-20.7377,116.8463,24.75,24,3,7.55,AU,1688879884
66,acapulco de juarez,16.8634,-99.8901,27.9,78,75,3.09,MX,1688879784
67,keflavik,64.0049,-22.5624,10.95,93,40,2.57,IS,1688879885
68,madaba,31.5833,35.6667,23.09,65,0,2.65,JO,1688879886
69,selfoss,63.9331,-20.9971,13.83,73,80,1.3,IS,1688879887
70,puerto deseado,-47.7503,-65.8938,0.85,75,84,4.4,AR,1688879887
71,laguna,38.421,-121.4238,20.1,67,0,5.14,US,1688879888
72,ciudad bolivar,8.1222,-63.5497,25.34,82,27,2.76,VE,1688879888
73,warrnambool,-38.3833,142.4833,13.52,77,72,9.99,AU,1688879889
74,ambalangoda,6.2355,80.0538,28.31,76,96,5.36,LK,1688879889
75,yamada,39.4667,141.95,23.73,94,100,1.05,JP,1688879891
76,kodiak,57.79,-152.4072,11.73,71,100,6.17,US,1688879891
77,hammerfest,70.6634,23.6821,9.25,81,64,0.51,NO,1688879892
78,cabo san lucas,22.8909,-109.9124,29.78,80,10,0.89,MX,1688879821
79,nova sintra,14.8667,-24.7167,22.26,87,92,3.94,CV,1688879893
80,talnakh,69.4865,88.3972,16.23,90,100,1.43,RU,1688879893
81,qarazhal,48.0078,70.7903,27.9,25,6,4.8,KZ,1688879894
82,rasht,37.2808,49.5832,27.9,100,40,3.09,IR,1688879895
83,kilindoni,-7.9139,39.6668,25.07,74,46,5.39,TZ,1688879896
84,el bauga,18.262,33.9081,32.17,16,38,1.64,SD,1688879896
85,bafq,31.6128,55.4107,33.17,12,0,0.39,IR,1688879897
86,kaa-khem,51.6833,94.7333,26.3,38,14,3.75,RU,1688879897
87,ebaye,8.7748,167.7392,28.47,78,100,7.94,MH,1688879898
88,swakopmund,-22.6833,14.5333,12.25,73,0,6.03,NA,1688879899
89,arinos,-15.9169,-46.1056,17.28,50,0,0.8,BR,1688879899
90,ancud,-41.8697,-73.8203,8.41,82,99,5.99,CL,1688879900
91,badger,64.8,-147.5333,19.99,47,0,2.57,US,1688879900
92,kiunga,-6.1219,141.2906,26.06,96,99,1.59,PG,1688879901
93,lorengau,-2.0226,147.2712,26.08,88,100,3.85,PG,1688879902
94,papao,-17.75,-149.55,26.82,74,19,11.15,PF,1688879902
95,sinabang,2.4803,96.3801,27.34,79,93,1.05,ID,1688879903
96,nueva gerona,21.8833,-82.8,27.85,76,5,1.9,CU,1688879904
97,bandon,51.7469,-8.7425,11.77,93,81,2.38,IE,1688879905
98,albany,42.6001,-73.9662,22.19,93,80,1.05,US,1688879905
99,braganca,-1.0536,-46.7656,22.06,98,9,0.81,BR,1688879906
100,papatowai,-46.5619,169.4708,8.28,91,95,1.45,NZ,1688879907
101,howrah,22.5892,88.3103,33.0,66,40,2.57,IN,1688879610
102,acarau,-2.8856,-40.12,24.4,87,0,5.51,BR,1688879908
103,dalandzadgad,43.5708,104.425,31.66,17,82,4.19,MN,1688879908
104,san antonio de pale,-1.4014,5.6325,23.49,82,100,4.39,GQ,1688879909
105,senador jose porfirio,-2.5908,-51.9542,23.66,86,32,1.04,BR,1688879909
106,magadan,59.5667,150.8,11.22,96,100,2.39,RU,1688879726
107,coxen hole,16.3244,-86.5366,30.2,79,0,8.75,HN,1688879910
108,minas de marcona,-15.2119,-75.1103,11.12,90,32,4.72,PE,1688879912
109,labrador city,52.9463,-66.9114,13.95,82,0,1.03,CA,1688879912
110,santa ana,33.7456,-117.8678,21.13,84,40,3.09,US,1688879703
111,chibougamau,49.9168,-74.3659,16.79,100,100,1.54,CA,1688879840
112,ribeira grande,38.5167,-28.7,20.43,93,70,1.79,PT,1688879914
113,richards bay,-28.783,32.0377,18.58,77,98,5.37,ZA,1688879914
114,qaqortoq,60.7167,-46.0333,6.0,85,88,2.07,GL,1688879915
115,hovd,48.0056,91.6419,24.58,25,97,2.59,MN,1688879915
116,lata,40.1629,-8.3327,13.93,98,6,1.23,PT,1688879916
117,afaahiti,-17.75,-149.2833,25.93,81,58,10.0,PF,1688879916
118,khandyga,62.6667,135.6,19.19,28,72,5.42,RU,1688879917
119,whitehorse,60.7161,-135.0538,25.43,23,75,2.57,CA,1688879918
120,hawaiian paradise park,19.5933,-154.9731,23.73,90,100,1.54,US,1688879919
121,utrik,11.2278,169.8474,27.97,81,99,9.24,MH,1688879920
122,sambava,-14.2667,50.1667,21.86,75,78,4.61,MG,1688879920
123,goz beida,13.95,20.55,26.59,59,98,1.76,TD,1688879921
124,antsiranana,-12.2787,49.2917,24.06,63,2,7.49,MG,1688879921
125,nova vicosa,-17.8919,-39.3719,21.37,92,2,4.27,BR,1688879922
126,qamdo,31.1667,97.2333,16.88,47,100,2.87,CN,1688879923
127,mossel bay,-34.1831,22.146,8.96,78,64,10.1,ZA,1688879923
128,quepos,9.4236,-84.1652,26.17,85,100,1.22,CR,1688879924
129,cienega de flores,25.95,-100.1833,28.07,83,0,1.03,MX,1688879925
130,tazacorte,28.629,-17.9293,20.54,86,0,3.13,ES,1688879926
131,idri,27.5,13.2667,26.65,31,28,3.92,LY,1688879926
132,saldanha,-33.0117,17.9442,5.03,70,29,7.18,ZA,1688879927
133,kaka,37.3482,59.6143,35.62,14,0,2.76,TM,1688879927
134,iskateley,67.6803,53.1512,7.9,67,100,4.77,RU,1688879928
135,udachny,66.4167,112.4,27.55,27,42,8.67,RU,1688879929
136,ta`u,-14.2336,-169.5144,27.63,78,90,5.61,AS,1688879930
137,borogontsy,62.6683,131.1683,20.6,31,43,5.54,RU,1688879930
138,hermanus,-34.4187,19.2345,8.22,76,96,7.84,ZA,1688879931
139,mitu,1.1983,-70.1733,22.43,96,99,0.29,CO,1688879931
140,rongelap,11.1635,166.8941,28.21,81,99,7.78,MH,1688879932
141,ola,59.5833,151.2833,12.01,93,100,1.37,RU,1688879932
142,new plymouth,-39.0667,174.0833,13.78,90,100,5.45,NZ,1688879639
143,salekhard,66.53,66.6019,15.01,73,100,1.29,RU,1688879934
144,puerto ayora,-0.7393,-90.3518,25.31,92,19,3.13,EC,1688879934
145,tiksi,71.6872,128.8694,3.39,65,74,3.28,RU,1688879935
146,fort st. john,56.2499,-120.8529,20.94,49,40,3.09,CA,1688879935
147,pisco,-13.7,-76.2167,17.03,77,1,0.0,PE,1688879936
148,olinda,-8.0089,-34.8553,23.85,100,75,1.54,BR,1688879889
149,sola,-13.8833,167.55,25.98,83,71,9.12,VU,1688879937
150,querqueville,49.6625,-1.6912,15.82,88,100,2.57,FR,1688879937
151,sainte-marie,-20.8968,55.5496,25.59,84,75,7.72,RE,1688879642
152,vilyuchinsk,52.9306,158.4028,17.15,84,72,3.57,RU,1688879938
153,aykhal,66.0,111.5,25.94,31,36,8.46,RU,1688879939
154,vilyuysk,63.7553,121.6247,22.68,30,51,2.95,RU,1688879940
155,petropavlovsk-kamchatsky,53.0452,158.6483,16.33,77,75,6.0,RU,1688879940
156,candido de abreu,-24.5669,-51.3333,15.25,99,49,0.7,BR,1688879941
157,colonia,50.9333,6.95,24.42,71,0,1.03,DE,1688879754
158,port saint john's,-31.6229,29.5448,13.74,65,81,4.18,ZA,1688879942
159,arauca,7.0847,-70.7591,22.72,96,100,1.35,CO,1688879942
160,kerikeri,-35.2268,173.9474,14.39,82,2,1.34,NZ,1688879943
161,kirakira,-10.4544,161.9205,28.19,78,100,6.2,SB,1688879944
162,upington,-28.4478,21.2561,6.21,75,75,2.57,ZA,1688879944
163,susuman,62.7833,148.1667,5.72,86,100,4.11,RU,1688879945
164,luganville,-15.5333,167.1667,26.56,72,69,4.29,VU,1688879945
165,leer,53.2316,7.461,22.19,75,29,2.7,DE,1688879946
166,bayanhongor,46.7167,100.1167,22.51,30,83,3.03,MN,1688879947
167,olonkinbyen,70.9221,-8.7187,5.11,92,100,5.84,SJ,1688879947
168,svetlyy,54.675,20.1347,18.03,69,31,0.84,RU,1688879948
169,codrington,-38.2667,141.9667,13.72,76,48,8.45,AU,1688879949
170,sodo,6.8642,37.7628,14.63,85,94,1.59,ET,1688879949
171,saipan,15.1355,145.701,32.39,100,40,8.23,MP,1688879950
172,schoppenstedt,52.1431,10.7745,23.21,72,56,0.89,DE,1688879951
173,norderney,53.7,7.15,21.1,74,69,5.0,DE,1688879951
174,arraial do cabo,-22.9661,-42.0278,21.44,64,55,2.37,BR,1688879952
175,college,64.8569,-147.8028,20.04,50,20,2.57,US,1688879952
176,georgiyevka,43.0369,74.7114,23.02,56,40,2.0,KZ,1688879953
177,fortaleza,-3.7227,-38.5247,26.07,83,40,3.09,BR,1688879953
178,tazovsky,67.4667,78.7,12.02,71,30,6.14,RU,1688879954
179,berezovyy,51.6667,135.7,22.89,84,96,2.34,RU,1688879955
180,norton shores,43.1689,-86.2639,16.14,82,0,0.0,US,1688879956
181,port mathurin,-19.6833,63.4167,23.48,73,47,11.41,MU,1688879956
182,huarmey,-10.0681,-78.1522,20.49,83,13,4.01,PE,1688879957
183,avarua,-21.2078,-159.775,25.03,94,0,4.63,CK,1688879957
184,port alfred,-33.5906,26.891,11.93,60,29,11.85,ZA,1688879958
185,nova xavantina,-14.6667,-52.35,19.73,51,0,1.09,BR,1688879958
186,ust'-ordynskiy,52.805,104.7508,24.22,66,98,2.05,RU,1688879959
187,new norfolk,-42.7826,147.0587,12.62,81,62,3.26,AU,1688879960
188,lycksele,64.5954,18.6735,14.93,88,20,1.03,SE,1688879960
189,klaksvik,62.2266,-6.589,14.51,96,40,5.2,FO,1688879961
190,laojunmiao,39.8333,97.7333,29.81,18,61,5.81,CN,1688879733
191,prado,-17.3411,-39.2208,20.64,95,10,3.17,BR,1688879962
192,myitkyina,25.3833,97.4,24.08,100,100,0.12,MM,1688879963
193,slave lake,55.2834,-114.769,19.99,68,0,0.0,CA,1688879964
194,margate,51.3813,1.3862,18.16,90,97,1.34,GB,1688879964
195,usogorsk,63.4106,48.6872,11.52,97,100,2.87,RU,1688879965
196,inyati,-19.6756,28.8469,8.16,75,0,1.01,ZW,1688879965
197,conde,-7.2597,-34.9075,22.7,100,40,1.54,BR,1688879966
198,flying fish cove,-10.4217,105.6791,25.82,83,100,5.66,CX,1688879967
199,kourou,5.1552,-52.6478,24.03,87,51,1.32,GF,1688879967
200,fisterra,42.9049,-9.2629,14.86,85,98,3.3,ES,1688879969
201,vorgashor,67.5833,63.95,7.92,68,100,2.32,RU,1688879970
202,chernyshevskiy,63.0128,112.4714,26.02,35,61,0.52,RU,1688879970
203,chonchi,-42.6128,-73.8092,6.56,90,100,3.37,CL,1688879790
204,tabou,4.423,-7.3528,24.44,88,98,2.63,CI,1688879971
205,vernon,50.2581,-119.2691,24.74,41,16,1.03,CA,1688879972
206,suoyarvi,62.0833,32.35,9.86,85,100,4.02,RU,1688879972
207,kingston,17.997,-76.7936,28.53,82,20,0.89,JM,1688879769
208,ulsteinvik,62.3432,5.8487,17.64,83,97,2.15,NO,1688879973
209,vorkuta,67.5,64.0,8.17,68,100,2.32,RU,1688879974
210,alo,7.4178,6.7371,22.85,98,100,1.53,NG,1688879974
211,montepuez,-13.1256,38.9997,17.8,87,98,1.09,MZ,1688879975
212,paracuru,-3.41,-39.0306,24.5,87,3,4.13,BR,1688879976
213,port douglas,-16.4833,145.4667,23.38,69,92,6.96,AU,1688879976
214,kasane,-17.8167,25.15,9.48,72,0,1.35,BW,1688879977
215,mount gambier,-37.8333,140.7667,12.84,77,92,5.69,AU,1688879977
216,urangan,-25.3,152.9,20.97,46,33,1.4,AU,1688879978
217,aasiaat,68.7098,-52.8699,3.92,92,100,1.23,GL,1688879978
218,yeosu,34.7546,127.6599,25.38,88,100,2.5,KR,1688879979
219,nar'yan-mar,67.6713,53.087,7.99,67,100,4.76,RU,1688879979
220,wynyard,-41.0,145.7167,12.77,72,67,7.72,AU,1688879980
221,ellsworth,44.5434,-68.4195,20.72,97,100,0.45,US,1688879776
222,bantay,17.5847,120.3892,33.31,85,89,3.3,PH,1688879981
223,uliastay,47.7417,96.8444,24.7,26,94,1.77,MN,1688879981
224,constantia,44.1833,28.65,18.38,57,99,10.65,RO,1688879982
225,bandar lampung,-5.4254,105.258,27.24,85,71,2.15,ID,1688879983
226,ostersund,63.1792,14.6357,12.25,35,7,3.09,SE,1688879983
227,carnarvon,-24.8667,113.6333,22.56,31,1,2.31,AU,1688879984
228,nemuro,43.3236,145.575,16.55,89,76,4.77,JP,1688879940
229,dudinka,69.4058,86.1778,16.46,67,100,4.16,RU,1688879985
230,zapadnaya dvina,56.259,32.0745,16.27,71,2,2.92,RU,1688879985
231,cootamundra,-34.65,148.0333,11.08,73,93,6.53,AU,1688879986
232,west island,-12.1568,96.8225,27.99,69,40,6.17,CC,1688879986
233,antofagasta,-23.65,-70.4,16.6,82,70,1.86,CL,1688879763
234,cabanas,22.9758,-82.9219,26.4,79,17,2.49,CU,1688879987
235,la ronge,55.1001,-105.2842,18.14,77,75,1.54,CA,1688879988
236,tobruk,32.0836,23.9764,24.48,88,26,8.23,LY,1688879989
237,feicheng,35.2606,117.9675,38.75,28,1,4.77,CN,1688879990
238,vimperk,49.0586,13.7829,20.84,48,17,1.3,CZ,1688879990
239,nampula,-15.1165,39.2666,17.97,100,75,0.0,MZ,1688879991
240,egilsstadir,65.2653,-14.3948,15.84,82,100,1.31,IS,1688879991
241,enewetak,11.3474,162.3373,28.4,80,99,6.79,MH,1688879992
242,isafjordur,66.0755,-23.124,11.28,59,40,2.45,IS,1688879992
243,forde,61.4522,5.8572,18.06,77,99,0.0,NO,1688879993
244,markovo,57.3206,107.0881,27.33,43,88,2.45,RU,1688879994
245,nangong,37.3581,115.3744,39.92,16,0,2.85,CN,1688879994
246,rundu,-17.9333,19.7667,8.62,48,0,1.92,NA,1688879995
247,smithers,54.7804,-127.1743,18.18,88,75,3.09,CA,1688879995
248,hamilton,39.1834,-84.5333,22.43,93,100,0.0,US,1688879726
249,aleg,17.0481,-13.9209,28.78,49,20,4.26,MR,1688879996
250,atafu village,-8.5421,-172.5159,28.87,75,73,7.65,TK,1688879997
251,padang,-0.9492,100.3543,30.03,67,68,2.33,ID,1688879799
252,st. john's,47.5649,-52.7093,17.38,94,75,2.06,CA,1688879738
253,san patricio,28.017,-97.5169,28.94,84,0,5.97,US,1688879998
254,ascension,30.2169,-90.9001,28.38,88,0,0.0,US,1688879999
255,carauari,-4.8828,-66.8958,23.79,87,83,0.84,BR,1688879999
256,odate,40.2686,140.5683,24.08,100,75,2.57,JP,1688880000
257,naze,28.3667,129.4833,30.51,77,34,5.75,JP,1688880002
258,tamanrasset,22.785,5.5228,25.95,14,0,6.69,DZ,1688880003
259,micheweni,-4.9667,39.8333,24.89,77,40,5.16,TZ,1688880004
260,dapa,9.7594,126.0531,29.09,72,100,4.89,PH,1688880005
261,leshan,29.5623,103.7639,36.97,40,16,0.78,CN,1688880002
262,grand falls-windsor,48.9332,-55.6649,18.06,90,100,1.49,CA,1688880006
263,mayna,54.1135,47.6231,23.77,56,100,3.72,RU,1688880010
264,al bayda',32.7627,21.7551,19.96,84,86,3.87,LY,1688880014
265,remire-montjoly,4.9167,-52.2667,24.02,100,0,0.0,GF,1688880015
266,lebu,-37.6167,-73.65,9.19,78,94,1.09,CL,1688880015
267,arauco,-37.2463,-73.3175,8.12,82,99,1.51,CL,1688880016
268,ulanhot,46.0833,122.0833,24.02,72,100,4.1,CN,1688880016
269,lodja,-3.4833,23.4333,19.23,51,18,0.26,CD,1688880017
270,aras-asan,8.8908,126.3033,28.7,77,94,3.24,PH,1688880018
271,huanren,41.2647,125.3667,28.27,63,45,3.37,CN,1688880019
272,yuzhno-kurilsk,44.0306,145.8556,17.86,80,63,3.13,RU,1688880020
273,ouadda,8.0777,22.4007,20.28,93,100,1.16,CF,1688880020
274,butembo,0.15,29.2833,14.8,83,98,1.06,CD,1688880021
275,victoria de durango,24.0333,-104.6667,21.45,62,94,1.13,MX,1688880022
276,tomatlan,19.9333,-105.25,24.65,74,76,1.73,MX,1688880022
277,quellon,-43.1167,-73.6167,7.14,100,100,1.03,CL,1688880023
278,beyneu,45.3167,55.2,36.0,13,0,6.03,KZ,1688880023
279,dolbeau-mistassini,48.8763,-72.212,20.36,90,98,2.21,CA,1688880024
280,inhambane,-23.865,35.3833,19.99,88,0,3.09,MZ,1688880025
281,gamba,-2.65,10.0,19.67,93,86,1.54,GA,1688880025
282,porto novo,6.4965,2.6036,24.9,97,97,1.08,BJ,1688880026
283,tindouf,27.6711,-8.1474,24.25,43,0,6.69,DZ,1688880026
284,kailua-kona,19.6406,-155.9956,26.98,77,75,6.69,US,1688879830
285,vadso,70.0744,29.7487,7.09,81,100,2.06,NO,1688880027
286,olyokminsk,60.3736,120.4264,24.92,26,5,1.98,RU,1688880028
287,san nicolas,18.1725,120.5953,30.95,70,40,2.57,PH,1688880029
288,garko,10.1751,11.1646,22.63,85,93,3.5,NG,1688880029
289,danane,7.2596,-8.155,21.45,99,96,0.44,CI,1688880030
290,guerrero negro,27.9769,-114.0611,17.34,85,0,6.47,MX,1688880030
291,ilulissat,69.2167,-51.1,7.01,81,75,1.03,GL,1688880031
292,ambovombe,-25.1667,46.0833,20.02,68,2,2.91,MG,1688880032
293,topi,34.0704,72.6236,30.96,54,2,1.72,PK,1688880032
294,puerto baquerizo moreno,-0.9,-89.6,24.95,77,67,5.99,EC,1688880033
295,nantucket,41.2835,-70.0995,23.03,100,100,0.0,US,1688880033
296,chicoana,-25.1009,-65.5331,15.03,83,62,1.12,AR,1688880034
297,dalmatovo,56.26,62.9362,26.41,50,6,3.72,RU,1688880034
298,ain sefra,32.75,-0.5833,25.69,20,0,1.81,DZ,1688880035
299,shevchenkove,49.6959,37.1735,18.75,95,100,5.74,UA,1688880036
300,yaren,-0.5472,166.916,25.95,87,100,4.84,NR,1688880036
301,djenne,13.9061,-4.5533,27.6,57,95,2.52,ML,1688880037
302,manta,-0.95,-80.7333,26.67,78,75,8.05,EC,1688879623
303,balpyk bi,44.8947,78.2083,28.81,30,36,2.89,KZ,1688880038
304,illizi,26.4833,8.4667,25.89,20,0,4.27,DZ,1688880038
305,ketchikan,55.3422,-131.6461,14.27,90,42,2.15,US,1688880039
306,labytnangi,66.6572,66.4183,13.88,78,100,0.6,RU,1688880039
307,kutum,14.2,24.6667,23.95,59,68,1.65,SD,1688880040
308,queensbury,53.7667,-1.9167,14.66,93,89,1.65,GB,1688880041
309,okhotsk,59.3833,143.3,18.19,54,18,4.87,RU,1688880041
310,el colomo,19.05,-104.25,25.26,77,87,2.46,MX,1688880042
311,paimpol,48.7784,-3.0438,16.85,84,100,2.95,FR,1688880042
312,akureyri,65.6835,-18.0878,8.96,93,0,1.54,IS,1688880043
313,bodaybo,57.8506,114.1933,26.83,42,97,2.12,RU,1688880043
314,shamva,-17.3116,31.5756,9.64,76,0,1.42,ZW,1688880044
315,gazojak,41.1875,61.4036,36.46,14,0,6.59,TM,1688880045
316,bonny,4.4522,7.1681,24.14,90,100,2.85,NG,1688880046
317,horta,38.5333,-28.6333,20.01,93,73,1.79,PT,1688880047
318,kavaratti,10.5669,72.642,28.29,75,100,7.34,IN,1688880047
319,jincheng,35.5022,112.8328,37.16,19,23,2.63,CN,1688880048
320,campoverde,-8.4753,-74.8058,21.95,95,13,1.23,PE,1688880049
321,merizo village,13.2658,144.6691,29.99,95,93,6.94,GU,1688880049
322,ixtapa,20.7,-105.2,27.35,94,75,1.03,MX,1688880050
323,sumbawa besar,-8.5,117.4333,32.94,44,40,4.93,ID,1688880050
324,tadine,-21.55,167.8833,21.35,61,87,5.07,NC,1688880051
325,gulf shores,30.246,-87.7008,29.47,73,20,4.12,US,1688880052
326,vredendal,-31.6683,18.5012,7.62,83,38,1.83,ZA,1688880052
327,constitucion,-35.3333,-72.4167,11.08,80,98,1.81,CL,1688880053
328,mata-utu,-13.2816,-176.1745,27.99,72,82,8.56,WF,1688880053
329,kerch,45.3583,36.4758,24.5,77,95,7.19,UA,1688880054
330,machilipatnam,16.1667,81.1333,34.44,56,100,5.83,IN,1688880054
331,midvagur,62.0511,-7.1939,14.46,88,16,5.66,FO,1688880055
332,san pedro pochutla,15.7333,-96.4667,24.28,87,97,1.55,MX,1688880055
333,cam ranh,11.9214,109.1591,35.98,46,20,3.6,VN,1688880056
334,sakakah,29.9697,40.2064,28.76,27,0,4.02,SA,1688880056
335,dhuusamarreeb,5.535,46.3861,25.88,58,92,11.44,SO,1688880057
336,pariaman,-0.619,100.12,30.03,68,69,3.03,ID,1688880058
337,cheremushki,52.8356,91.3944,23.83,56,87,2.49,RU,1688880058
338,notodden,59.5594,9.2585,19.44,72,100,0.19,NO,1688880059
339,al kharijah,25.4514,30.5464,28.75,34,3,5.32,EG,1688879778
340,totskoye,52.5248,52.7623,28.58,41,86,2.88,RU,1688880060
341,newman,37.3138,-121.0208,19.58,54,0,3.16,US,1688880043
342,ad dabbah,18.05,30.95,32.8,16,31,3.82,SD,1688880061
343,reggane,26.7158,0.1714,35.17,10,7,9.84,DZ,1688880063
344,belyy yar,53.6039,91.3903,23.94,60,0,5.0,RU,1688880063
345,dublyany,49.9041,24.0864,17.64,73,5,2.11,UA,1688880064
346,capo d'orlando,38.1435,14.7305,26.34,56,0,0.54,IT,1688880065
347,mbanza kongo,-6.267,14.2401,16.14,98,75,0.6,AO,1688880066
348,kramators'k,48.723,37.5563,18.93,96,100,3.88,UA,1688880066
349,filiatra,37.15,21.5833,25.94,70,0,1.07,GR,1688880067
350,huadian,42.9633,126.7478,26.6,65,91,2.29,CN,1688880067
351,tuy hoa,13.0833,109.3,32.83,59,12,4.13,VN,1688880068
352,talodi,10.6325,30.3797,23.41,84,98,0.5,SD,1688880069
353,hpa-an,16.8906,97.6333,30.97,71,100,1.1,MM,1688880069
354,barro alto,-11.7608,-41.9117,17.72,85,14,2.01,BR,1688880070
355,worland,44.0169,-107.9554,16.64,72,0,4.63,US,1688880071
356,kuqa,41.7278,82.9364,29.13,28,98,4.11,CN,1688880071
357,vanimo,-2.6741,141.3028,25.84,85,100,1.63,PG,1688880072
358,le port,-20.9373,55.2919,25.5,76,36,3.29,RE,1688880054
359,la mira,18.035,-102.3266,25.7,85,60,1.6,MX,1688880073
360,madanapalle,13.55,78.5,27.82,58,94,7.62,IN,1688880074
361,mombetsu,44.3525,143.3525,26.01,83,40,3.09,JP,1688880074
362,kidal,18.4411,1.4078,30.08,32,2,0.74,ML,1688880075
363,geraldton,-28.7667,114.6,20.23,52,0,2.06,AU,1688880075
364,la alianza,18.3974,-66.6024,24.15,96,99,2.66,PR,1688880076
365,kyakhta,50.3508,106.4494,26.2,48,91,1.77,RU,1688880076
366,jalai nur,49.45,117.7,22.81,68,100,6.26,CN,1688880077
367,primero de mayo,-32.2552,-58.4228,13.08,70,100,2.29,AR,1688880078
368,revda,56.801,59.9303,26.8,42,13,3.26,RU,1688880078
369,alice springs,-23.7,133.8833,18.75,32,1,7.1,AU,1688879959
370,shingu,33.7333,135.9833,30.59,69,99,5.77,JP,1688880079
371,kwakoa,-3.7667,37.7167,18.23,78,27,0.87,TZ,1688880080
372,lethem,3.3803,-59.7968,24.94,81,80,2.85,GY,1688880081
373,murun-kuren,49.6342,100.1625,24.18,52,38,2.81,MN,1688880081
374,rocky point,40.9526,-72.9254,24.27,93,20,0.0,US,1688880082
375,sandnessjoen,66.0217,12.6316,11.47,81,100,1.34,NO,1688880083
376,cooper's town,26.8667,-77.5167,28.76,73,73,6.5,BS,1688880083
377,pelabuhan klang,3.0,101.4,30.11,83,97,2.5,MY,1688880084
378,stettler,52.3168,-112.7186,16.86,77,1,1.54,CA,1688880085
379,ballina,-28.8667,153.5667,20.92,38,0,0.44,AU,1688880085
380,leeton,-34.5667,146.4,14.38,59,38,6.7,AU,1688880086
381,waurn ponds,-38.2167,144.2833,13.47,70,42,3.58,AU,1688880087
382,beni,0.5,29.4667,16.94,97,91,0.48,CD,1688880087
383,robore,-18.3333,-59.75,23.47,54,74,1.81,BO,1688880088
384,weno,7.4515,151.8468,25.97,94,100,2.06,FM,1688880089
385,mallawi,27.7314,30.8417,26.75,52,0,5.28,EG,1688880089
386,basco,20.4487,121.9702,29.43,68,64,3.49,PH,1688880090
387,tommot,58.9564,126.2925,19.8,44,1,4.47,RU,1688880091
388,tosontsengel,48.7567,98.2839,24.51,31,17,3.89,MN,1688880091
389,levuka,50.1834,-105.4011,14.84,43,52,1.49,CA,1688880092
390,lubango,-14.9172,13.4925,10.43,38,0,2.65,AO,1688880093
391,nizhnevartovsk,60.9344,76.5531,20.01,68,40,3.13,RU,1688880094
392,coquimbo,-29.9533,-71.3436,9.85,87,0,2.06,CL,1688879814
393,naantali,60.4674,22.0243,15.62,84,40,3.09,FI,1688880095
394,carutapera,-1.195,-46.02,23.63,92,4,2.01,BR,1688880096
395,turochak,52.2576,87.1224,19.66,87,88,2.13,RU,1688880096
396,veshenskaya,49.6303,41.7334,23.82,68,85,9.05,RU,1688880098
397,chegdomyn,51.1167,133.0167,30.15,38,81,2.93,RU,1688880098
398,monte carmelo,-18.7247,-47.4986,15.49,48,2,1.31,BR,1688880099
399,retreat,38.8245,-85.8533,20.62,96,100,2.1,US,1688880099
400,luderitz,-26.6481,15.1594,11.43,69,0,7.39,NA,1688880100
401,madimba,-10.4,40.3333,22.29,84,12,2.68,TZ,1688880101
402,sanctuary point,-35.1114,150.629,17.96,52,4,7.09,AU,1688880102
403,lihue,21.9789,-159.3672,27.58,70,40,8.23,US,1688880102
404,sheridan,44.8333,-106.9173,18.16,69,75,1.54,US,1688880103
405,cidreira,-30.1811,-50.2056,16.02,87,70,4.06,BR,1688880104
406,laurentides,46.4334,-74.9826,15.95,75,100,1.53,CA,1688880105
407,harrisonville,38.6533,-94.3488,19.07,94,0,0.0,US,1688880105
408,jinka,5.65,36.65,19.04,65,49,1.71,ET,1688880106
409,firuzabad,28.8438,52.5707,33.4,16,0,1.2,IR,1688880107
410,muli,2.9167,73.5667,28.19,70,4,3.81,MV,1688880080
411,palikir - national government center,6.9248,158.1611,30.41,74,100,2.06,FM,1688880108
412,palmer,42.1584,-72.3287,23.34,85,75,1.54,US,1688880108
413,kuala terengganu,5.3302,103.1408,30.97,74,40,3.6,MY,1688880109
414,masterton,-40.9597,175.6575,10.49,97,100,2.77,NZ,1688880110
415,saacow,1.6279,42.4407,24.57,75,82,5.93,SO,1688880110
416,mega,4.05,38.3,13.95,78,64,7.2,ET,1688880111
417,punta del este,-34.9667,-54.95,11.6,81,0,2.06,UY,1688880112
418,stolac,43.0844,17.9575,18.88,74,0,2.32,BA,1688880112
419,sierra grande,-41.606,-65.3557,5.64,76,42,4.75,AR,1688880113
420,brisas de zicatela,15.8369,-97.0419,26.29,65,75,1.54,MX,1688880113
421,santana,-0.0583,-51.1817,26.1,94,40,2.57,BR,1688879822
422,polyarnyy,69.1989,33.4478,6.84,71,100,4.42,RU,1688880114
423,podporozh'ye,60.9112,34.1706,11.86,88,100,3.31,RU,1688880115
424,luxembourg,50.0,5.5,18.55,80,6,2.41,BE,1688880116
425,east london,-33.0153,27.9116,10.52,62,0,5.14,ZA,1688879883
426,qalat,32.1058,66.9083,29.02,25,12,4.23,AF,1688880117
427,poltava,49.5937,34.5407,17.14,95,100,6.23,UA,1688880117
428,mtwara,-10.2667,40.1833,21.69,86,21,2.85,TZ,1688880119
429,tromso,69.6496,18.957,12.43,87,75,2.06,NO,1688879841
430,puerto lempira,15.2667,-83.7667,26.03,90,98,3.2,HN,1688880120
431,caleta de carquin,-11.0925,-77.6267,19.68,81,23,4.2,PE,1688880120
432,piti village,13.4626,144.6933,30.17,80,75,6.17,GU,1688880121
433,hilo,19.7297,-155.09,23.85,86,100,2.24,US,1688880045
434,westport,41.1415,-73.3579,24.49,89,0,0.45,US,1688880122
435,kiambu,-1.1667,36.8333,15.46,83,75,0.51,KE,1688880123
436,kabompo,-13.5927,24.2008,7.48,78,0,2.11,ZM,1688880124
437,qarqin,37.4185,66.0436,33.64,17,0,2.16,AF,1688880124
438,ndioum,16.5129,-14.6471,25.94,52,38,5.05,SN,1688880125
439,tarfaya,27.9358,-12.9218,21.63,82,46,8.0,MA,1688880125
440,kananga,-5.8958,22.4178,17.72,43,7,1.28,CD,1688880126
441,blessington,53.17,-6.5325,13.27,82,75,1.03,IE,1688880127
442,tvoroyri,61.5556,-6.8111,11.73,94,7,6.96,FO,1688880127
443,walvis bay,-22.9575,14.5053,7.53,81,0,4.12,NA,1688880128
444,kittila,67.6647,24.8936,15.9,58,0,2.57,FI,1688880129
445,choibalsan,48.0667,114.5,25.99,47,62,4.98,MN,1688880129
446,chui,-33.6971,-53.4616,12.09,81,95,2.53,UY,1688880130
447,grand-lahou,5.1367,-5.0242,23.93,91,92,3.21,CI,1688880131
448,kertih,4.5141,103.4483,31.01,74,40,1.54,MY,1688880131
449,mahalapye,-23.1041,26.8142,11.73,38,0,2.91,BW,1688880132
450,les cayes,18.2,-73.75,26.39,83,51,1.38,HT,1688880133
451,taoudenni,22.6783,-3.9836,36.13,15,0,1.13,ML,1688880133
452,mermoz boabab,14.7065,-17.4758,26.31,80,96,6.0,SN,1688880134
453,manistee,44.2445,-86.3242,16.0,96,100,0.0,US,1688880135
454,priladozhskiy,59.85,31.4833,15.3,1,40,3.1,RU,1688880135
455,pocone,-16.2567,-56.6228,22.65,45,3,2.52,BR,1688880136
456,kargil,34.5667,76.1,10.27,74,99,1.71,IN,1688880136
457,leninogorsk,54.6026,52.4609,26.8,45,71,1.98,RU,1688880137
458,garissa,-0.4536,39.6401,24.13,71,48,6.84,KE,1688880137
459,usinsk,65.9939,57.5281,11.51,73,100,4.54,RU,1688880138
460,tangalle,6.024,80.7911,30.53,63,85,6.36,LK,1688880023
461,topeka,39.0483,-95.678,19.48,86,0,0.0,US,1688880083
462,waingapu,-9.6567,120.2641,28.44,66,30,8.26,ID,1688880140
463,callao,-12.0667,-77.15,21.16,73,100,6.69,PE,1688880110
464,savalou,7.9281,1.9756,22.49,97,99,1.8,BJ,1688880141
465,ulladulla,-35.35,150.4667,16.61,50,7,6.57,AU,1688880142
466,roma,43.2128,-75.4557,19.81,89,20,0.0,US,1688880066
467,fort bragg,35.139,-79.006,24.0,91,0,0.0,US,1688880143
468,windermere,54.3809,-2.9071,14.37,94,100,0.46,GB,1688880144
469,crane,31.3974,-102.3501,29.44,41,1,7.45,US,1688880145
470,bakanas,44.8081,76.2772,29.64,29,12,1.59,KZ,1688880146
471,nagqu,31.5,92.0,15.96,45,66,1.69,CN,1688880146
472,castillos,-34.1667,-53.8333,10.3,83,77,1.65,UY,1688880147
473,srikakulam,18.3,83.9,33.85,53,93,1.15,IN,1688880147
474,tralee,52.2704,-9.7026,11.94,93,100,2.85,IE,1688880148
475,ninotsminda,41.2646,43.5916,15.49,82,71,0.97,GE,1688879885
476,merritt island,28.5392,-80.672,26.11,89,0,4.47,US,1688880132
477,nuuk,64.1835,-51.7216,7.34,81,100,1.54,GL,1688880150
478,harwich,51.9419,1.2844,17.98,81,100,0.45,GB,1688880151
479,taltal,-25.4,-70.4833,14.48,80,67,0.47,CL,1688880151
480,salinopolis,-0.6136,-47.3561,25.65,83,2,3.58,BR,1688880152
481,trinidad,-14.8333,-64.9,25.57,60,39,1.66,BO,1688880153
482,kyelang,32.5833,77.0333,5.96,100,100,0.78,IN,1688879956
483,souillac,-20.5167,57.5167,22.21,88,75,4.63,MU,1688880154
484,villa mercedes,-33.6757,-65.4578,10.98,74,19,3.16,AR,1688880154
485,ndele,8.4109,20.6473,21.17,87,100,0.89,CF,1688880155
486,gandajika,-6.75,23.95,17.68,50,1,1.73,CD,1688880156
487,belozersk,60.0326,37.7957,15.06,81,51,3.06,RU,1688880156
488,benguela,-12.5763,13.4055,18.13,89,6,0.64,AO,1688880157
489,mlangali,-9.7833,34.5167,11.55,72,2,1.46,TZ,1688880157
490,dawesville,30.9224,-84.0091,25.2,90,0,0.89,US,1688880158
491,sainte-anne-des-monts,49.124,-66.4924,17.93,88,42,1.54,CA,1688880158
492,kununurra,-15.7667,128.7333,24.99,22,40,6.69,AU,1688879907
493,vilhena,-12.7406,-60.1458,19.48,63,3,1.23,BR,1688880160
494,kisangani,0.5167,25.2,21.31,85,25,1.09,CD,1688880160
495,mpika,-11.8343,31.4529,12.43,72,0,2.1,ZM,1688880161
496,klyuchi,52.2667,79.1667,26.19,34,4,5.03,RU,1688880161
497,valparaiso,-33.0393,-71.6273,12.8,94,75,1.54,CL,1688879872
498,mwene-ditu,-7.0,23.45,16.62,48,3,1.75,CD,1688880162
499,grafton,42.207,-71.6856,22.6,92,91,0.45,US,1688880077
500,thunder bay,48.4001,-89.3168,10.99,93,75,0.51,CA,1688880042
501,guatrache,-37.6678,-63.5302,6.37,92,100,2.73,AR,1688880164
502,serhiyivka,46.0272,30.3768,20.23,60,92,11.91,UA,1688880164
503,dongola,19.1667,30.4833,32.26,17,37,3.9,SD,1688880165
504,sungai raya,0.7,108.9,31.85,58,40,1.94,ID,1688880165
505,pizarro,4.9533,-77.366,26.34,84,60,1.25,CO,1688880166
506,al qubbah,32.7616,22.2424,20.15,81,10,6.14,LY,1688880167
507,koryazhma,61.3143,47.1691,13.51,95,100,2.73,RU,1688880167
508,arkhangel'sk,64.5401,40.5433,9.15,77,83,2.86,RU,1688880168
509,ibiza,38.9088,1.433,26.23,87,0,1.34,ES,1688880023
510,sokolka,53.4072,23.5023,17.06,69,3,2.78,PL,1688880169
511,pahlgam,34.0333,75.3333,19.28,62,44,3.1,IN,1688880169
512,zemio,5.0314,25.1361,19.74,95,80,0.72,CF,1688880170
513,hilton head island,32.2163,-80.7526,27.77,94,40,2.06,US,1688879965
514,'alaqahdari dishu,30.4374,63.313,34.03,13,0,9.51,AF,1688880171
515,khamis mushait,18.3064,42.7292,26.58,36,0,2.06,SA,1688880171
516,dryden,49.7833,-92.7503,15.16,58,100,2.57,CA,1688880172
517,misratah,32.3754,15.0925,27.24,53,0,3.68,LY,1688880173
518,muisne,0.6,-80.0333,25.57,89,73,2.24,EC,1688880174
519,volpiano,45.2015,7.7782,23.81,77,0,1.54,IT,1688880174
520,pajapan,18.25,-94.7,24.69,90,38,1.82,MX,1688880175
521,lisala,2.15,21.5167,20.63,85,65,0.58,CD,1688880175
522,kaiapoi,-43.3783,172.6401,12.26,94,75,3.6,NZ,1688880176
523,mejit,10.2753,170.8646,28.15,79,100,8.99,MH,1688880177
524,lavrio,37.7145,24.0565,28.19,63,0,5.94,GR,1688880177
525,dakhla,23.6848,-15.958,19.55,90,4,9.68,EH,1688880178
526,guadalajara,20.6667,-103.3333,21.87,53,75,3.6,MX,1688880016
527,lazaro cardenas,17.9583,-102.2,26.44,83,54,1.64,MX,1688880179
528,soio,-6.1349,12.3689,20.3,91,84,2.98,AO,1688880179
529,hithadhoo,-0.6,73.0833,27.46,72,96,2.31,MV,1688880180
530,galich,58.3797,42.3475,19.04,61,80,1.41,RU,1688880180
531,undurkhaan,47.3194,110.6556,25.73,41,28,1.36,MN,1688880181
532,touros,-5.1989,-35.4608,24.08,89,21,4.26,BR,1688880181
533,champerico,14.3,-91.9167,26.54,83,100,2.53,GT,1688880182
534,tual,-5.6667,132.75,26.41,83,69,10.7,ID,1688880183
535,yeghegnadzor,39.7639,45.3324,25.48,43,1,0.88,AM,1688880183
536,colonia nicolich,-34.8131,-56.0447,10.68,87,40,0.0,UY,1688880184
537,makarov,48.6333,142.8,25.55,55,0,3.45,RU,1688880184
538,bowen,-20.0167,148.2333,22.38,37,5,7.24,AU,1688879885
539,cromer,52.9312,1.2989,18.37,91,100,3.27,GB,1688880185
540,nabire,-3.3667,135.4833,26.25,90,67,1.76,ID,1688880186
541,fort mcmurray,56.7268,-111.381,23.73,53,40,0.51,CA,1688880187
542,el calafate,-50.3408,-72.2768,-5.09,65,9,1.2,AR,1688880187
543,aripuana,-9.1667,-60.6333,21.99,56,1,0.77,BR,1688880188
544,la'ie,21.6477,-157.9253,26.98,72,98,3.58,US,1688880188
545,sunland park,31.7965,-106.58,33.25,28,0,5.81,US,1688880189
546,colares,38.7992,-9.4469,17.96,82,0,5.36,PT,1688880189
547,evanston,42.0411,-87.6901,18.54,79,0,0.0,US,1688880113
548,ban dung,17.699,103.2596,34.44,100,100,2.97,TH,1688880191
549,blackwater,-23.5833,148.8833,22.57,21,0,3.63,AU,1688880191
550,pandan,14.0453,124.1694,29.74,73,98,3.27,PH,1688880192
551,tlamacazapa,18.5167,-99.5,14.71,97,100,1.81,MX,1688880192
552,bom jesus,-9.0744,-44.3586,20.4,73,4,1.26,BR,1688880193
553,batang,-6.4846,110.7083,30.72,61,5,2.86,ID,1688880193
554,kruisfontein,-34.0033,24.7314,8.82,78,93,10.04,ZA,1688880195
555,queenstown,-31.8976,26.8753,3.36,76,76,4.86,ZA,1688880195
556,diffa,13.3154,12.6113,28.01,50,82,3.41,NE,1688880196
557,raduzhnyy,62.0961,77.475,21.52,52,34,4.16,RU,1688880196
558,samana,19.2056,-69.3369,26.08,89,44,2.9,DO,1688880197
559,bada,51.392,109.8717,27.17,45,18,1.41,RU,1688880197
560,chust,41.0094,71.2287,28.66,24,0,2.35,UZ,1688880198
561,al jawf,29.5,38.75,26.81,35,0,4.9,SA,1688880199
562,comayagua,14.45,-87.6333,21.52,95,97,1.02,HN,1688880199
563,mili,6.0815,171.735,28.17,80,100,8.76,MH,1688880200
564,kawardha,22.0167,81.25,26.99,76,99,3.49,IN,1688880068
565,veszprem,47.0933,17.9115,21.7,65,6,0.68,HU,1688879979
566,melekeok village,7.4957,134.6367,31.31,70,75,5.66,PW,1688880203
567,janow lubelski,50.707,22.4104,16.24,60,0,2.85,PL,1688880203
568,krasnogorskoye,52.2953,86.1979,21.63,70,73,4.04,RU,1688880204
569,changji,44.0167,87.3167,22.44,68,100,3.0,CN,1688880204
570,severo-yeniseyskiy,60.3725,93.0408,25.9,43,93,3.92,RU,1688880205
